<?xml version="1.0" encoding="UTF-8"?>
<stationlist reference="DBMI15v4" created="20250808064905">
  <station source="CFTI5med" netid="INTENSITY" code="IT_51544" lat="43.522" lon="13.620" intensity="8.5" name="Sirolo"/>
  <station source="CFTI5med" netid="INTENSITY" code="IT_51058" lat="43.617" lon="13.517" intensity="8.0" name="Ancona"/>
  <station source="CFTI5med" netid="INTENSITY" code="IT_71084" lat="43.547" lon="13.616" intensity="7.5" name="Badia di San Pietro"/>
  <station source="CFTI5med" netid="INTENSITY" code="IT_51367" lat="43.512" lon="13.622" intensity="7.5" name="Numana"/>
  <station source="CFTI5med" netid="INTENSITY" code="IT_51055" lat="43.544" lon="13.385" intensity="6.5" name="Agugliano"/>
  <station source="CFTI5med" netid="INTENSITY" code="IT_51140" lat="43.463" lon="13.550" intensity="6.5" name="Castelfidardo"/>
  <station source="CFTI5med" netid="INTENSITY" code="IT_51243" lat="43.628" lon="13.401" intensity="6.5" name="Falconara Marittima"/>
  <station source="CFTI5med" netid="INTENSITY" code="IT_51370" lat="43.527" lon="13.442" intensity="6.5" name="Offagna"/>
  <station source="CFTI5med" netid="INTENSITY" code="IT_51373" lat="43.486" lon="13.484" intensity="6.5" name="Osimo"/>
  <station source="CFTI5med" netid="INTENSITY" code="IT_51407" lat="43.525" lon="13.394" intensity="6.5" name="Polverigi"/>
  <station source="CFTI5med" netid="INTENSITY" code="IT_51323" lat="43.440" lon="13.610" intensity="6.0" name="Loreto"/>
  <station source="CFTI5med" netid="INTENSITY" code="IT_50450" lat="43.837" lon="13.018" intensity="5.0" name="Fano"/>
  <station source="CFTI5med" netid="INTENSITY" code="IT_51311" lat="43.522" lon="13.245" intensity="5.0" name="Jesi"/>
  <station source="CFTI5med" netid="INTENSITY" code="IT_51398" lat="43.604" lon="13.058" intensity="5.0" name="Ostra Vetere"/>
  <station source="CFTI5med" netid="INTENSITY" code="IT_51516" lat="43.714" lon="13.223" intensity="5.0" name="Senigallia"/>
  <station source="CFTI5med" netid="INTENSITY" code="IT_51177" lat="43.446" lon="13.116" intensity="1.8" name="Cupramontana"/>
</stationlist>
