<?xml version="1.0" encoding="UTF-8"?>
<stationlist reference="DBMI15v4" created="20250821141234">
  <station source="TATMO998" netid="INTENSITY" code="RO_00255" lat="45.850" lon="25.600" intensity="9.0" name="Hidveg"/>
  <station source="TATMO998" netid="INTENSITY" code="RO_00068" lat="46.050" lon="26.050" intensity="8.5" name="A.Torja"/>
  <station source="TATMO998" netid="INTENSITY" code="RO_00076" lat="45.780" lon="25.730" intensity="8.5" name="Al Doboly"/>
  <station source="TATMO998" netid="INTENSITY" code="RO_00077" lat="45.930" lon="26.000" intensity="8.5" name="Albis"/>
  <station source="TATMO998" netid="INTENSITY" code="RO_00106" lat="45.820" lon="26.100" intensity="8.5" name="Barátos"/>
  <station source="TATMO998" netid="INTENSITY" code="RO_00118" lat="45.930" lon="25.600" intensity="8.5" name="Belenyes"/>
  <station source="TATMO998" netid="INTENSITY" code="RO_00119" lat="46.050" lon="25.700" intensity="8.5" name="Bereck"/>
  <station source="TATMO998" netid="INTENSITY" code="RO_00128" lat="45.840" lon="25.980" intensity="8.5" name="Bita"/>
  <station source="TATMO998" netid="INTENSITY" code="RO_00134" lat="45.780" lon="25.650" intensity="8.5" name="Botfalva"/>
  <station source="TATMO998" netid="INTENSITY" code="RO_00011" lat="45.642" lon="25.589" intensity="8.5" name="Braşov"/>
  <station source="TATMO998" netid="INTENSITY" code="RO_00012" lat="44.431" lon="26.121" intensity="8.5" name="Bucuresti"/>
  <station source="TATMO998" netid="INTENSITY" code="RO_00180" lat="45.820" lon="26.050" intensity="8.5" name="Czófalva"/>
  <station source="TATMO998" netid="INTENSITY" code="RO_00210" lat="45.710" lon="25.430" intensity="8.5" name="Feketehalom"/>
  <station source="TATMO998" netid="INTENSITY" code="RO_00256" lat="45.780" lon="25.530" intensity="8.5" name="Höltöveny"/>
  <station source="TATMO998" netid="INTENSITY" code="RO_00265" lat="45.850" lon="25.770" intensity="8.5" name="Illyefalva"/>
  <station source="TATMO998" netid="INTENSITY" code="RO_00274" lat="45.970" lon="26.150" intensity="8.5" name="Kanta"/>
  <station source="TATMO998" netid="INTENSITY" code="RO_00279" lat="46.000" lon="26.150" intensity="8.5" name="Kezdi Vasárhely"/>
  <station source="TATMO998" netid="INTENSITY" code="RO_00285" lat="45.780" lon="25.820" intensity="8.5" name="Kökös"/>
  <station source="TATMO998" netid="INTENSITY" code="RO_00332" lat="45.930" lon="25.600" intensity="8.5" name="Nagy Ajita"/>
  <station source="TATMO998" netid="INTENSITY" code="RO_00377" lat="45.580" lon="25.480" intensity="8.5" name="Posnyo"/>
  <station source="TATMO998" netid="INTENSITY" code="RO_00408" lat="45.880" lon="25.800" intensity="8.5" name="Sepsiszentgyörgy"/>
  <station source="TATMO998" netid="INTENSITY" code="RO_00422" lat="46.050" lon="25.700" intensity="8.5" name="Száras Ajita"/>
  <station source="TATMO998" netid="INTENSITY" code="RO_00483" lat="45.830" lon="25.530" intensity="8.5" name="Veresmart"/>
  <station source="TATMO998" netid="INTENSITY" code="RO_00110" lat="46.100" lon="25.600" intensity="8.0" name="Barot"/>
  <station source="TATMO998" netid="INTENSITY" code="RO_00142" lat="45.290" lon="27.950" intensity="8.0" name="Breila"/>
  <station source="TATMO998" netid="INTENSITY" code="RO_00443" lat="44.200" lon="27.250" intensity="8.0" name="Sziliztria"/>
  <station source="TATMO998" netid="INTENSITY" code="MD_00002" lat="46.820" lon="29.450" intensity="7.5" name="Bendery"/>
  <station source="TATMO998" netid="INTENSITY" code="RO_00220" lat="45.700" lon="24.300" intensity="7.5" name="Fenyöfalva"/>
  <station source="TATMO998" netid="INTENSITY" code="RO_00227" lat="45.430" lon="28.000" intensity="7.5" name="Galats"/>
  <station source="TATMO998" netid="INTENSITY" code="MD_00019" lat="47.350" lon="28.320" intensity="7.5" name="Gerbovets"/>
  <station source="TATMO998" netid="INTENSITY" code="RO_00269" lat="47.150" lon="27.600" intensity="7.5" name="Jassy"/>
  <station source="TATMO998" netid="INTENSITY" code="MD_00020" lat="47.120" lon="28.500" intensity="7.5" name="Kapriyany"/>
  <station source="TATMO998" netid="INTENSITY" code="MD_00021" lat="47.000" lon="28.850" intensity="7.5" name="Kishinev"/>
  <station source="TATMO998" netid="INTENSITY" code="BG_00098" lat="43.800" lon="25.950" intensity="7.5" name="Ruszcsuk"/>
  <station source="TATMO998" netid="INTENSITY" code="RO_00041" lat="45.796" lon="24.151" intensity="7.5" name="Sibiu"/>
  <station source="TATMO998" netid="INTENSITY" code="MD_00017" lat="47.750" lon="27.900" intensity="7.0" name="Beltsi"/>
  <station source="TATMO998" netid="INTENSITY" code="RO_00120" lat="46.150" lon="24.500" intensity="7.0" name="Berethalom"/>
  <station source="TATMO998" netid="INTENSITY" code="UA_00011" lat="48.300" lon="25.900" intensity="7.0" name="Chernovtsy"/>
  <station source="TATMO998" netid="INTENSITY" code="RO_00208" lat="45.850" lon="25.960" intensity="7.0" name="Fagaras"/>
  <station source="TATMO998" netid="INTENSITY" code="RO_00293" lat="44.300" lon="23.800" intensity="7.0" name="Krajova"/>
  <station source="TATMO998" netid="INTENSITY" code="RO_00322" lat="46.150" lon="24.350" intensity="7.0" name="Medgyes"/>
  <station source="TATMO998" netid="INTENSITY" code="RO_00404" lat="45.950" lon="23.580" intensity="7.0" name="Sebesh,"/>
  <station source="TATMO998" netid="INTENSITY" code="RO_00405" lat="46.200" lon="24.800" intensity="7.0" name="Segesvar"/>
  <station source="TATMO998" netid="INTENSITY" code="BG_00124" lat="43.992" lon="22.882" intensity="7.0" name="Vidin"/>
  <station source="TATMO998" netid="INTENSITY" code="UA_00035" lat="46.450" lon="30.700" intensity="6.5" name="Odessa"/>
  <station source="TATMO998" netid="INTENSITY" code="MD_00022" lat="48.150" lon="28.300" intensity="6.5" name="Soroki"/>
  <station source="TATMO998" netid="INTENSITY" code="BG_00121" lat="43.200" lon="27.950" intensity="6.5" name="Varna"/>
  <station source="TATMO998" netid="INTENSITY" code="RO_00021" lat="45.879" lon="22.906" intensity="6.0" name="Deva"/>
  <station source="TATMO998" netid="INTENSITY" code="UA_00015" lat="50.400" lon="25.700" intensity="6.0" name="Dubno"/>
  <station source="TATMO998" netid="INTENSITY" code="BG_00101" lat="43.260" lon="26.950" intensity="6.0" name="Shumen"/>
  <station source="TATMO998" netid="INTENSITY" code="UA_00025" lat="50.450" lon="30.522" intensity="5.5" name="Kiev"/>
  <station source="TATMO998" netid="INTENSITY" code="UA_00096" lat="48.600" lon="23.600" intensity="5.5" name="Kolozsvar"/>
  <station source="TATMO998" netid="INTENSITY" code="UA_00030" lat="49.843" lon="24.026" intensity="5.5" name="L'viv"/>
  <station source="TATMO998" netid="INTENSITY" code="UA_00106" lat="48.900" lon="24.800" intensity="5.5" name="Tysmenitsa"/>
  <station source="TATMO998" netid="INTENSITY" code="UA_00088" lat="45.500" lon="33.400" intensity="5.0" name="Evpatoria"/>
  <station source="TATMO998" netid="INTENSITY" code="TR_00078" lat="41.012" lon="28.976" intensity="5.0" name="Istanbul"/>
  <station source="TATMO998" netid="INTENSITY" code="RU_00012" lat="54.500" lon="36.250" intensity="5.0" name="Kaluga"/>
  <station source="TATMO998" netid="INTENSITY" code="RU_00014" lat="54.050" lon="35.750" intensity="5.0" name="Kozelsk"/>
  <station source="TATMO998" netid="INTENSITY" code="RU_00016" lat="52.100" lon="40.750" intensity="5.0" name="Mordovka"/>
  <station source="TATMO998" netid="INTENSITY" code="UA_00103" lat="44.600" lon="33.550" intensity="5.0" name="Sevastopol"/>
  <station source="TATMO998" netid="INTENSITY" code="RU_00021" lat="54.780" lon="32.050" intensity="5.0" name="Smolensk"/>
  <station source="TATMO998" netid="INTENSITY" code="RO_00455" lat="45.750" lon="21.230" intensity="5.0" name="Timishoara"/>
  <station source="TATMO998" netid="INTENSITY" code="RS_00004" lat="44.850" lon="20.400" intensity="5.0" name="Zemlin"/>
  <station source="TATMO998" netid="INTENSITY" code="RU_00009" lat="53.780" lon="36.150" intensity="4.5" name="Belev"/>
  <station source="TATMO998" netid="INTENSITY" code="UA_00084" lat="50.350" lon="25.120" intensity="4.5" name="Berestechko"/>
  <station source="TATMO998" netid="INTENSITY" code="UA_00087" lat="48.450" lon="35.000" intensity="4.5" name="Ekaterinoslavl'"/>
  <station source="TATMO998" netid="INTENSITY" code="RU_00010" lat="52.970" lon="39.380" intensity="4.5" name="Izbishchi"/>
  <station source="TATMO998" netid="INTENSITY" code="RU_00011" lat="52.950" lon="39.800" intensity="4.5" name="Kalikino"/>
  <station source="TATMO998" netid="INTENSITY" code="PL_00008" lat="50.061" lon="19.938" intensity="4.5" name="Kraków"/>
  <station source="TATMO998" netid="INTENSITY" code="RU_00015" lat="54.070" lon="36.300" intensity="4.5" name="Likhvin"/>
  <station source="TATMO998" netid="INTENSITY" code="RU_00017" lat="55.757" lon="37.615" intensity="4.5" name="Moscow"/>
  <station source="TATMO998" netid="INTENSITY" code="RU_00019" lat="52.950" lon="36.120" intensity="4.5" name="Orel"/>
  <station source="TATMO998" netid="INTENSITY" code="RU_00020" lat="54.260" lon="36.000" intensity="4.5" name="Peremyshl"/>
  <station source="TATMO998" netid="INTENSITY" code="UA_00102" lat="49.650" lon="24.950" intensity="4.5" name="Pomoryany"/>
  <station source="TATMO998" netid="INTENSITY" code="UA_00104" lat="44.950" lon="34.080" intensity="4.5" name="Simferopol"/>
  <station source="TATMO998" netid="INTENSITY" code="RU_00024" lat="54.190" lon="37.550" intensity="4.5" name="Tula"/>
  <station source="TATMO998" netid="INTENSITY" code="PL_00012" lat="52.320" lon="21.000" intensity="4.5" name="Warsow"/>
  <station source="TATMO998" netid="INTENSITY" code="RU_00026" lat="52.450" lon="40.450" intensity="4.5" name="Yablonivets"/>
  <station source="TATMO998" netid="INTENSITY" code="RU_00027" lat="52.850" lon="39.680" intensity="4.5" name="Zamartyn'e"/>
  <station source="TATMO998" netid="INTENSITY" code="RU_00022" lat="59.935" lon="30.304" intensity="3.5" name="Sankt-Peterburg"/>
</stationlist>
