<?xml version="1.0" encoding="UTF-8"?>
<stationlist reference="DBMI15v4" created="20250808064906">
  <station source="CFTI5med" netid="INTENSITY" code="IT_49530" lat="42.891" lon="13.020" intensity="8.0" name="Castelvecchio"/>
  <station source="CFTI5med" netid="INTENSITY" code="IT_52180" lat="42.924" lon="13.030" intensity="8.0" name="Croce"/>
  <station source="CFTI5med" netid="INTENSITY" code="IT_49251" lat="42.793" lon="13.094" intensity="8.0" name="Norcia"/>
  <station source="CFTI5med" netid="INTENSITY" code="IT_49529" lat="42.878" lon="13.039" intensity="8.0" name="Preci"/>
  <station source="CFTI5med" netid="INTENSITY" code="IT_49531" lat="42.898" lon="13.034" intensity="8.0" name="Saccovescio"/>
  <station source="CFTI5med" netid="INTENSITY" code="IT_70959" lat="42.871" lon="13.065" intensity="8.0" name="Sant'Eutizio"/>
  <station source="CFTI5med" netid="INTENSITY" code="IT_49534" lat="42.845" lon="13.066" intensity="8.0" name="Todiano"/>
  <station source="CFTI5med" netid="INTENSITY" code="IT_48514" lat="42.718" lon="13.013" intensity="7.0" name="Cascia"/>
  <station source="CFTI5med" netid="INTENSITY" code="IT_48817" lat="42.955" lon="12.704" intensity="5.0" name="Foligno"/>
  <station source="CFTI5med" netid="INTENSITY" code="IT_49206" lat="43.113" lon="12.788" intensity="5.0" name="Nocera Umbra"/>
  <station source="CFTI5med" netid="INTENSITY" code="IT_53515" lat="42.402" lon="12.860" intensity="5.0" name="Rieti"/>
  <station source="CFTI5med" netid="INTENSITY" code="IT_49693" lat="42.736" lon="12.737" intensity="5.0" name="Spoleto"/>
  <station source="CFTI5med" netid="INTENSITY" code="IT_54180" lat="41.899" lon="12.477" intensity="4.0" name="Roma"/>
  <station source="CFTI5med" netid="INTENSITY" code="IT_57660" lat="42.352" lon="14.168" intensity="3.9" name="Chieti"/>
  <station source="CFTI5med" netid="INTENSITY" code="IT_49390" lat="43.112" lon="12.389" intensity="3.9" name="Perugia"/>
  <station source="CFTI5med" netid="INTENSITY" code="IT_52187" lat="42.931" lon="13.088" intensity="1.8" name="Visso"/>
</stationlist>
