<?xml version="1.0" encoding="UTF-8"?>
<stationlist reference="DBMI15v4" created="20250821142402">
  <station source="TAXE003" netid="INTENSITY" code="TR_00088" lat="37.857" lon="27.260" intensity="8.0" name="Kuşadası"/>
  <station source="TAXE003" netid="INTENSITY" code="TR_00002" lat="37.846" lon="27.843" intensity="6.0" name="Aydin"/>
  <station source="TAXE003" netid="INTENSITY" code="TR_00167" lat="38.217" lon="27.667" intensity="5.0" name="Bayindir"/>
  <station source="TAXE003" netid="INTENSITY" code="TR_00294" lat="38.217" lon="27.983" intensity="5.0" name="Odemis"/>
  <station source="TAXE003" netid="INTENSITY" code="GR_00126" lat="37.757" lon="26.976" intensity="5.0" name="Samos"/>
  <station source="TAXE003" netid="INTENSITY" code="TR_00130" lat="38.085" lon="27.735" intensity="4.5" name="Tire"/>
  <station source="TAXE003" netid="INTENSITY" code="GR_00139" lat="36.418" lon="25.432" intensity="4.0" name="Thira"/>
  <station source="TAXE003" netid="INTENSITY" code="TR_00311" lat="37.950" lon="27.367" intensity="1.8" name="Selcuk"/>
</stationlist>
