<?xml version="1.0" encoding="UTF-8"?>
<stationlist reference="DBMI15v4" created="20250808064300">
  <station source="BAPAL007" netid="INTENSITY" code="PT_00790" lat="37.126" lon="-7.648" intensity="9.5" name="Tavira"/>
  <station source="BAPAL007" netid="INTENSITY" code="PT_00303" lat="37.017" lon="-7.933" intensity="9.0" name="Faro"/>
  <station source="BAPAL007" netid="INTENSITY" code="PT_00375" lat="37.139" lon="-8.023" intensity="9.0" name="Loulé"/>
  <station source="BAPAL007" netid="INTENSITY" code="PT_00014" lat="37.089" lon="-8.252" intensity="7.5" name="Albufeira"/>
  <station source="BAPAL007" netid="INTENSITY" code="PT_00360" lat="37.135" lon="-8.451" intensity="7.5" name="Lagoa"/>
  <station source="BAPAL007" netid="INTENSITY" code="PT_00234" lat="37.218" lon="-7.442" intensity="7.0" name="Castro Marim"/>
  <station source="BAPAL007" netid="INTENSITY" code="PT_00557" lat="37.141" lon="-8.538" intensity="7.0" name="Portimão"/>
  <station source="BAPAL007" netid="INTENSITY" code="PT_00374" lat="38.713" lon="-9.139" intensity="4.0" name="Lisboa"/>
  <station source="BAPAL007" netid="INTENSITY" code="ES_00524" lat="37.387" lon="-5.995" intensity="4.0" name="Sevilla"/>
</stationlist>
