<?xml version="1.0" encoding="UTF-8"?>
<stationlist reference="DBMI15v4" created="20250808064908">
  <station source="CFTI5med" netid="INTENSITY" code="IT_37178" lat="44.782" lon="10.637" intensity="7.5" name="Argine"/>
  <station source="CFTI5med" netid="INTENSITY" code="IT_37082" lat="44.762" lon="10.673" intensity="7.5" name="Bagnolo in Piano"/>
  <station source="CFTI5med" netid="INTENSITY" code="IT_37211" lat="44.782" lon="10.531" intensity="7.5" name="Campegine"/>
  <station source="CFTI5med" netid="INTENSITY" code="IT_37354" lat="44.810" lon="10.564" intensity="7.5" name="Castelnovo di Sotto"/>
  <station source="CFTI5med" netid="INTENSITY" code="IT_37798" lat="44.679" lon="10.593" intensity="7.5" name="Coviolo"/>
  <station source="CFTI5med" netid="INTENSITY" code="IT_37622" lat="44.865" lon="10.671" intensity="7.5" name="San Bernardino"/>
  <station source="CFTI5med" netid="INTENSITY" code="IT_37535" lat="44.854" lon="10.637" intensity="7.5" name="Santa Vittoria"/>
  <station source="CFTI5med" netid="INTENSITY" code="IT_37835" lat="44.740" lon="10.615" intensity="7.5" name="Sesso"/>
  <station source="CFTI5med" netid="INTENSITY" code="IT_36539" lat="44.743" lon="10.333" intensity="7.0" name="Alberi"/>
  <station source="CFTI5med" netid="INTENSITY" code="IT_36620" lat="44.771" lon="10.303" intensity="7.0" name="Antognano"/>
  <station source="CFTI5med" netid="INTENSITY" code="IT_36541" lat="44.854" lon="10.308" intensity="7.0" name="Baganzola"/>
  <station source="CFTI5med" netid="INTENSITY" code="IT_36548" lat="44.813" lon="10.383" intensity="7.0" name="Beneceto"/>
  <station source="CFTI5med" netid="INTENSITY" code="IT_37154" lat="44.900" lon="10.515" intensity="7.0" name="Brescello"/>
  <station source="CFTI5med" netid="INTENSITY" code="IT_37190" lat="44.763" lon="10.597" intensity="7.0" name="Cadelbosco di Sopra"/>
  <station source="CFTI5med" netid="INTENSITY" code="IT_37195" lat="44.805" lon="10.620" intensity="7.0" name="Cadelbosco di Sotto"/>
  <station source="CFTI5med" netid="INTENSITY" code="IT_38179" lat="44.690" lon="10.841" intensity="7.0" name="Campogalliano"/>
  <station source="CFTI5med" netid="INTENSITY" code="IT_38203" lat="44.784" lon="10.885" intensity="7.0" name="Carpi"/>
  <station source="CFTI5med" netid="INTENSITY" code="IT_36551" lat="44.815" lon="10.416" intensity="7.0" name="Casalbaroncolo"/>
  <station source="CFTI5med" netid="INTENSITY" code="IT_36554" lat="44.819" lon="10.438" intensity="7.0" name="Casaltone"/>
  <station source="CFTI5med" netid="INTENSITY" code="IT_36719" lat="44.699" lon="10.222" intensity="7.0" name="Castellaro"/>
  <station source="CFTI5med" netid="INTENSITY" code="IT_36822" lat="44.608" lon="10.041" intensity="7.0" name="Cazzola"/>
  <station source="CFTI5med" netid="INTENSITY" code="IT_37736" lat="44.728" lon="10.547" intensity="7.0" name="Cella"/>
  <station source="CFTI5med" netid="INTENSITY" code="IT_37345" lat="44.829" lon="10.585" intensity="7.0" name="Cogruzzo"/>
  <station source="CFTI5med" netid="INTENSITY" code="IT_37489" lat="44.771" lon="10.779" intensity="7.0" name="Correggio"/>
  <station source="CFTI5med" netid="INTENSITY" code="IT_36573" lat="44.758" lon="10.288" intensity="7.0" name="Gaione"/>
  <station source="CFTI5med" netid="INTENSITY" code="IT_37513" lat="44.795" lon="10.444" intensity="7.0" name="Gattatico"/>
  <station source="CFTI5med" netid="INTENSITY" code="IT_37754" lat="44.653" lon="10.673" intensity="7.0" name="Gavasseto"/>
  <station source="CFTI5med" netid="INTENSITY" code="IT_36299" lat="44.643" lon="10.299" intensity="7.0" name="Lesignano de' Bagni"/>
  <station source="CFTI5med" netid="INTENSITY" code="IT_36942" lat="44.677" lon="10.345" intensity="7.0" name="Mamiano"/>
  <station source="CFTI5med" netid="INTENSITY" code="IT_38628" lat="44.647" lon="10.926" intensity="7.0" name="Modena"/>
  <station source="CFTI5med" netid="INTENSITY" code="IT_37517" lat="44.804" lon="10.517" intensity="7.0" name="Nocetolo"/>
  <station source="CFTI5med" netid="INTENSITY" code="IT_36605" lat="44.801" lon="10.330" intensity="7.0" name="Parma"/>
  <station source="CFTI5med" netid="INTENSITY" code="IT_36623" lat="44.831" lon="10.378" intensity="7.0" name="Pedrignano"/>
  <station source="CFTI5med" netid="INTENSITY" code="IT_37081" lat="44.780" lon="10.685" intensity="7.0" name="Pieve Rossa"/>
  <station source="CFTI5med" netid="INTENSITY" code="IT_36808" lat="44.843" lon="10.401" intensity="7.0" name="Ramoscello"/>
  <station source="CFTI5med" netid="INTENSITY" code="IT_37794" lat="44.698" lon="10.631" intensity="7.0" name="Reggio nell'Emilia"/>
  <station source="CFTI5med" netid="INTENSITY" code="IT_37810" lat="44.737" lon="10.578" intensity="7.0" name="Roncocesi"/>
  <station source="CFTI5med" netid="INTENSITY" code="IT_37881" lat="44.625" lon="10.423" intensity="7.0" name="San Polo d'Enza"/>
  <station source="CFTI5med" netid="INTENSITY" code="IT_37350" lat="44.806" lon="10.587" intensity="7.0" name="San Savino"/>
  <station source="CFTI5med" netid="INTENSITY" code="IT_37198" lat="44.805" lon="10.639" intensity="7.0" name="Seta"/>
  <station source="CFTI5med" netid="INTENSITY" code="IT_36325" lat="44.633" lon="10.292" intensity="7.0" name="Stadirano"/>
  <station source="CFTI5med" netid="INTENSITY" code="IT_36952" lat="44.640" lon="10.381" intensity="7.0" name="Traversetolo"/>
  <station source="CFTI5med" netid="INTENSITY" code="IT_36589" lat="44.827" lon="10.358" intensity="7.0" name="Ugozzolo"/>
  <station source="CFTI5med" netid="INTENSITY" code="IT_36474" lat="44.567" lon="10.298" intensity="7.0" name="Urzano"/>
  <station source="CFTI5med" netid="INTENSITY" code="IT_36596" lat="44.813" lon="10.367" intensity="7.0" name="Vicopò"/>
  <station source="CFTI5med" netid="INTENSITY" code="IT_36963" lat="44.639" lon="10.403" intensity="7.0" name="Vignale"/>
  <station source="CFTI5med" netid="INTENSITY" code="IT_37141" lat="44.665" lon="10.474" intensity="6.5" name="Bibbiano"/>
  <station source="CFTI5med" netid="INTENSITY" code="IT_37435" lat="44.696" lon="10.527" intensity="6.5" name="Cavriago"/>
  <station source="CFTI5med" netid="INTENSITY" code="IT_37730" lat="44.744" lon="10.501" intensity="6.5" name="Gaida"/>
  <station source="CFTI5med" netid="INTENSITY" code="IT_37651" lat="44.842" lon="10.541" intensity="6.5" name="Poviglio"/>
  <station source="CFTI5med" netid="INTENSITY" code="IT_37672" lat="44.636" lon="10.473" intensity="6.5" name="Quattro Castella"/>
  <station source="CFTI5med" netid="INTENSITY" code="IT_37856" lat="44.653" lon="10.783" intensity="6.5" name="Rubiera"/>
  <station source="CFTI5med" netid="INTENSITY" code="IT_70146" lat="44.793" lon="10.360" intensity="6.5" name="San Lazzaro Parmense"/>
  <station source="CFTI5med" netid="INTENSITY" code="IT_72013" lat="44.816" lon="10.332" intensity="6.5" name="San Leonardo"/>
  <station source="CFTI5med" netid="INTENSITY" code="IT_37917" lat="44.597" lon="10.690" intensity="6.5" name="Scandiano"/>
  <station source="CFTI5med" netid="INTENSITY" code="IT_36811" lat="44.846" lon="10.449" intensity="6.5" name="Sorbolo"/>
  <station source="CFTI5med" netid="INTENSITY" code="IT_37731" lat="44.740" lon="10.516" intensity="6.0" name="Cadè"/>
  <station source="CFTI5med" netid="INTENSITY" code="IT_37201" lat="44.841" lon="10.759" intensity="6.0" name="Campagnola Emilia"/>
  <station source="CFTI5med" netid="INTENSITY" code="IT_18614" lat="44.988" lon="10.421" intensity="6.0" name="Casalmaggiore"/>
  <station source="CFTI5med" netid="INTENSITY" code="IT_18772" lat="45.135" lon="10.023" intensity="6.0" name="Cremona"/>
  <station source="CFTI5med" netid="INTENSITY" code="IT_19577" lat="44.954" lon="10.641" intensity="6.0" name="Dosolo"/>
  <station source="CFTI5med" netid="INTENSITY" code="IT_37512" lat="44.872" lon="10.809" intensity="6.0" name="Fabbrico"/>
  <station source="CFTI5med" netid="INTENSITY" code="IT_37349" lat="44.847" lon="10.584" intensity="6.0" name="Meletole"/>
  <station source="CFTI5med" netid="INTENSITY" code="IT_37630" lat="44.845" lon="10.731" intensity="6.0" name="Novellara"/>
  <station source="CFTI5med" netid="INTENSITY" code="IT_19862" lat="44.928" lon="10.594" intensity="6.0" name="Pomponesco"/>
  <station source="CFTI5med" netid="INTENSITY" code="IT_20194" lat="44.929" lon="10.522" intensity="6.0" name="Viadana"/>
  <station source="CFTI5med" netid="INTENSITY" code="IT_39072" lat="44.541" lon="10.781" intensity="5.5" name="Sassuolo"/>
  <station source="CFTI5med" netid="INTENSITY" code="IT_40433" lat="44.727" lon="11.289" intensity="5.0" name="Cento"/>
  <station source="CFTI5med" netid="INTENSITY" code="IT_40627" lat="44.835" lon="11.620" intensity="5.0" name="Ferrara"/>
  <station source="CFTI5med" netid="INTENSITY" code="IT_37545" lat="44.921" lon="10.654" intensity="5.0" name="Guastalla"/>
  <station source="CFTI5med" netid="INTENSITY" code="IT_43402" lat="43.843" lon="10.505" intensity="5.0" name="Lucca"/>
  <station source="CFTI5med" netid="INTENSITY" code="IT_38756" lat="44.678" lon="11.041" intensity="5.0" name="Nonantola"/>
  <station source="CFTI5med" netid="INTENSITY" code="IT_16874" lat="45.606" lon="10.522" intensity="5.0" name="Salò"/>
  <station source="CFTI5med" netid="INTENSITY" code="IT_23679" lat="45.439" lon="10.994" intensity="5.0" name="Verona"/>
  <station source="CFTI5med" netid="INTENSITY" code="IT_25814" lat="45.548" lon="11.546" intensity="5.0" name="Vicenza"/>
  <station source="CFTI5med" netid="INTENSITY" code="IT_18405" lat="45.317" lon="8.856" intensity="5.0" name="Vigevano"/>
  <station source="CFTI5med" netid="INTENSITY" code="IT_39296" lat="44.494" lon="11.343" intensity="4.5" name="Bologna"/>
  <station source="CFTI5med" netid="INTENSITY" code="IT_18577" lat="45.252" lon="9.965" intensity="4.5" name="Casalbuttano ed Uniti (Casalbuttano)"/>
  <station source="CFTI5med" netid="INTENSITY" code="IT_18635" lat="45.296" lon="9.764" intensity="4.5" name="Castelleone"/>
  <station source="CFTI5med" netid="INTENSITY" code="IT_19701" lat="45.158" lon="10.794" intensity="4.5" name="Mantova"/>
  <station source="CFTI5med" netid="INTENSITY" code="IT_24065" lat="45.767" lon="11.734" intensity="4.0" name="Bassano del Grappa"/>
  <station source="CFTI5med" netid="INTENSITY" code="IT_15818" lat="45.539" lon="10.220" intensity="4.0" name="Brescia"/>
  <station source="CFTI5med" netid="INTENSITY" code="IT_33336" lat="44.419" lon="8.898" intensity="4.0" name="Genova"/>
  <station source="CFTI5med" netid="INTENSITY" code="IT_28470" lat="45.438" lon="12.336" intensity="4.0" name="Venezia"/>
  <station source="CFTI5med" netid="INTENSITY" code="IT_42928" lat="43.940" lon="10.304" intensity="3.9" name="Camaiore"/>
  <station source="CFTI5med" netid="INTENSITY" code="CH_00277" lat="46.003" lon="8.947" intensity="3.9" name="Lugano"/>
  <station source="CFTI5med" netid="INTENSITY" code="IT_38539" lat="44.887" lon="11.065" intensity="3.9" name="Mirandola"/>
  <station source="CFTI5med" netid="INTENSITY" code="IT_29123" lat="45.407" lon="11.875" intensity="3.9" name="Padova"/>
  <station source="CFTI5med" netid="INTENSITY" code="IT_17853" lat="45.185" lon="9.155" intensity="3.9" name="Pavia"/>
  <station source="CFTI5med" netid="INTENSITY" code="IT_35341" lat="45.052" lon="9.693" intensity="3.9" name="Piacenza"/>
  <station source="CFTI5med" netid="INTENSITY" code="IT_19275" lat="45.075" lon="10.089" intensity="3.9" name="Stagno Lombardo"/>
  <station source="CFTI5med" netid="INTENSITY" code="IT_00058" lat="45.099" lon="7.524" intensity="3.5" name="Alpignano"/>
  <station source="CFTI5med" netid="INTENSITY" code="IT_21839" lat="45.888" lon="11.037" intensity="3.5" name="Rovereto"/>
  <station source="CFTI5med" netid="INTENSITY" code="IT_13462" lat="45.464" lon="9.191" intensity="3.0" name="Milano"/>
  <station source="CFTI5med" netid="INTENSITY" code="IT_02356" lat="45.070" lon="7.674" intensity="3.0" name="Torino"/>
  <station source="CFTI5med" netid="INTENSITY" code="IT_18431" lat="44.993" lon="9.010" intensity="2.5" name="Voghera"/>
  <station source="CFTI5med" netid="INTENSITY" code="IT_31830" lat="46.063" lon="13.234" intensity="2.0" name="Udine"/>
</stationlist>
