<?xml version="1.0" encoding="UTF-8"?>
<stationlist reference="DBMI15v4" created="20250821144011">
  <station source="HAMLE013" netid="INTENSITY" code="AT_00272" lat="48.285" lon="16.109" intensity="9.0" name="Katzelsdorf"/>
  <station source="HAMLE013" netid="INTENSITY" code="AT_00033" lat="48.288" lon="15.963" intensity="8.0" name="Atzelsdorf"/>
  <station source="HAMLE013" netid="INTENSITY" code="AT_00083" lat="48.264" lon="15.968" intensity="8.0" name="Dietersdorf"/>
  <station source="HAMLE013" netid="INTENSITY" code="AT_00255" lat="48.285" lon="16.009" intensity="8.0" name="Judenau"/>
  <station source="HAMLE013" netid="INTENSITY" code="AT_00255" lat="48.285" lon="16.009" intensity="8.0" name="Judenau"/>
  <station source="HAMLE013" netid="INTENSITY" code="AT_00312" lat="48.410" lon="15.601" intensity="8.0" name="Krems an der Donau"/>
  <station source="HAMLE013" netid="INTENSITY" code="AT_00328" lat="48.332" lon="16.114" intensity="8.0" name="Langenlebarn"/>
  <station source="HAMLE013" netid="INTENSITY" code="AT_00329" lat="48.474" lon="15.677" intensity="8.0" name="Langenlois"/>
  <station source="HAMLE013" netid="INTENSITY" code="AT_00330" lat="48.307" lon="16.005" intensity="8.0" name="Langenrohr"/>
  <station source="HAMLE013" netid="INTENSITY" code="AT_00383" lat="48.247" lon="16.167" intensity="8.0" name="Mauerbach"/>
  <station source="HAMLE013" netid="INTENSITY" code="AT_00395" lat="48.290" lon="15.938" intensity="8.0" name="Michelhausen"/>
  <station source="HAMLE013" netid="INTENSITY" code="AT_00585" lat="48.254" lon="16.013" intensity="8.0" name="Sieghartskirchen"/>
  <station source="HAMLE013" netid="INTENSITY" code="AT_00660" lat="48.402" lon="15.581" intensity="8.0" name="Stein an der Donau"/>
  <station source="HAMLE013" netid="INTENSITY" code="AT_00706" lat="48.204" lon="15.808" intensity="8.0" name="Totzenbach"/>
  <station source="HAMLE013" netid="INTENSITY" code="AT_00708" lat="48.013" lon="16.295" intensity="8.0" name="Traiskirchen"/>
  <station source="HAMLE013" netid="INTENSITY" code="AT_00719" lat="48.292" lon="16.121" intensity="8.0" name="Tulbing"/>
  <station source="HAMLE013" netid="INTENSITY" code="AT_00720" lat="48.331" lon="16.051" intensity="8.0" name="Tulln an der Donau"/>
  <station source="HAMLE013" netid="INTENSITY" code="AT_00002" lat="48.265" lon="15.988" intensity="7.5" name="Abstetten"/>
  <station source="HAMLE013" netid="INTENSITY" code="SK_00003" lat="48.148" lon="17.108" intensity="7.5" name="Bratislava"/>
  <station source="HAMLE013" netid="INTENSITY" code="AT_00482" lat="48.287" lon="15.979" intensity="7.5" name="Pixendorf"/>
  <station source="HAMLE013" netid="INTENSITY" code="AT_00514" lat="48.234" lon="16.016" intensity="7.5" name="Rappoltenkirchen"/>
  <station source="HAMLE013" netid="INTENSITY" code="AT_01053" lat="48.170" lon="15.887" intensity="7.5" name="Unterthurm"/>
  <station source="HAMLE013" netid="INTENSITY" code="AT_00777" lat="48.208" lon="16.373" intensity="7.5" name="Wien"/>
  <station source="HAMLE013" netid="INTENSITY" code="AT_00846" lat="48.320" lon="15.833" intensity="7.0" name="Baumgarten am Tullnerfeld"/>
  <station source="HAMLE013" netid="INTENSITY" code="AT_00130" lat="48.285" lon="16.049" intensity="7.0" name="Freundorf"/>
  <station source="HAMLE013" netid="INTENSITY" code="AT_00299" lat="48.307" lon="16.326" intensity="7.0" name="Klosterneuburg"/>
  <station source="HAMLE013" netid="INTENSITY" code="AT_00305" lat="48.303" lon="16.150" intensity="7.0" name="Königstetten"/>
  <station source="HAMLE013" netid="INTENSITY" code="AT_00544" lat="48.303" lon="15.928" intensity="7.0" name="Rust im Tullnerfeld"/>
  <station source="HAMLE013" netid="INTENSITY" code="AT_00079" lat="48.286" lon="16.086" intensity="6.0" name="Chorherrn"/>
  <station source="HAMLE013" netid="INTENSITY" code="CZ_00011" lat="49.949" lon="15.267" intensity="6.0" name="Kutná Hora"/>
  <station source="HAMLE013" netid="INTENSITY" code="AT_00361" lat="48.306" lon="14.286" intensity="6.0" name="Linz"/>
  <station source="HAMLE013" netid="INTENSITY" code="DE_00052" lat="51.058" lon="13.741" intensity="5.0" name="Dresden"/>
  <station source="HAMLE013" netid="INTENSITY" code="DE_00071" lat="50.917" lon="13.343" intensity="5.0" name="Freiberg"/>
  <station source="HAMLE013" netid="INTENSITY" code="PL_00007" lat="50.439" lon="16.654" intensity="5.0" name="Klodzko"/>
  <station source="HAMLE013" netid="INTENSITY" code="CZ_00010" lat="50.028" lon="15.201" intensity="5.0" name="Kolín"/>
  <station source="HAMLE013" netid="INTENSITY" code="CZ_00064" lat="50.003" lon="14.976" intensity="5.0" name="Kouřim"/>
  <station source="HAMLE013" netid="INTENSITY" code="CZ_00012" lat="50.534" lon="14.131" intensity="5.0" name="Litoměřice"/>
  <station source="HAMLE013" netid="INTENSITY" code="PL_00009" lat="51.118" lon="15.290" intensity="5.0" name="Lubań"/>
  <station source="HAMLE013" netid="INTENSITY" code="CZ_00013" lat="50.411" lon="14.903" intensity="5.0" name="Mladá Boleslav"/>
  <station source="HAMLE013" netid="INTENSITY" code="CZ_00016" lat="48.790" lon="14.778" intensity="5.0" name="Nové Hrady"/>
  <station source="HAMLE013" netid="INTENSITY" code="CZ_00019" lat="49.594" lon="17.251" intensity="5.0" name="Olomouc"/>
  <station source="HAMLE013" netid="INTENSITY" code="CZ_00023" lat="50.087" lon="14.421" intensity="5.0" name="Praha"/>
  <station source="HAMLE013" netid="INTENSITY" code="CZ_00089" lat="49.472" lon="17.110" intensity="5.0" name="Prostějov"/>
  <station source="HAMLE013" netid="INTENSITY" code="CZ_00026" lat="50.231" lon="14.087" intensity="5.0" name="Slaný"/>
  <station source="HAMLE013" netid="INTENSITY" code="CZ_00097" lat="49.259" lon="14.719" intensity="5.0" name="Soběslav"/>
  <station source="HAMLE013" netid="INTENSITY" code="AT_00681" lat="48.143" lon="14.649" intensity="5.0" name="Strengberg"/>
  <station source="HAMLE013" netid="INTENSITY" code="CZ_00102" lat="49.354" lon="16.013" intensity="5.0" name="Velké Meziřiči"/>
  <station source="HAMLE013" netid="INTENSITY" code="CZ_00103" lat="49.147" lon="14.176" intensity="5.0" name="Vodňany"/>
  <station source="HAMLE013" netid="INTENSITY" code="AT_00071" lat="48.328" lon="13.774" intensity="4.5" name="Bruck an der Aschach"/>
  <station source="HAMLE013" netid="INTENSITY" code="DE_00017" lat="51.182" lon="14.424" intensity="4.0" name="Bautzen"/>
  <station source="HAMLE013" netid="INTENSITY" code="CZ_00002" lat="49.192" lon="16.608" intensity="4.0" name="Brno"/>
  <station source="HAMLE013" netid="INTENSITY" code="CZ_00003" lat="48.974" lon="14.474" intensity="4.0" name="České Budějovice"/>
  <station source="HAMLE013" netid="INTENSITY" code="CZ_00046" lat="50.074" lon="14.858" intensity="4.0" name="Český Brod"/>
  <station source="HAMLE013" netid="INTENSITY" code="CZ_00005" lat="49.951" lon="15.795" intensity="4.0" name="Chrudim"/>
  <station source="HAMLE013" netid="INTENSITY" code="CZ_00007" lat="50.209" lon="15.832" intensity="4.0" name="Hradec Králové"/>
  <station source="HAMLE013" netid="INTENSITY" code="PL_00005" lat="50.903" lon="15.734" intensity="4.0" name="Jelenia Góra"/>
  <station source="HAMLE013" netid="INTENSITY" code="CZ_00008" lat="49.696" lon="15.590" intensity="4.0" name="Jihlava"/>
  <station source="HAMLE013" netid="INTENSITY" code="CZ_00060" lat="49.144" lon="15.003" intensity="4.0" name="Jindřichův Hradec"/>
  <station source="HAMLE013" netid="INTENSITY" code="CZ_00017" lat="50.241" lon="15.491" intensity="4.0" name="Nový Bydžov"/>
  <station source="HAMLE013" netid="INTENSITY" code="DE_00170" lat="49.451" lon="11.077" intensity="4.0" name="Nürnberg"/>
  <station source="HAMLE013" netid="INTENSITY" code="CZ_00018" lat="50.186" lon="15.041" intensity="4.0" name="Nymburk"/>
  <station source="HAMLE013" netid="INTENSITY" code="CZ_00021" lat="50.038" lon="15.779" intensity="4.0" name="Pardubice"/>
  <station source="HAMLE013" netid="INTENSITY" code="AT_00550" lat="47.798" lon="13.046" intensity="4.0" name="Salzburg"/>
  <station source="HAMLE013" netid="INTENSITY" code="HU_00148" lat="47.686" lon="16.591" intensity="4.0" name="Sopron"/>
  <station source="HAMLE013" netid="INTENSITY" code="CZ_00028" lat="49.414" lon="14.658" intensity="4.0" name="Tábor"/>
  <station source="HAMLE013" netid="INTENSITY" code="SK_00102" lat="48.379" lon="17.586" intensity="4.0" name="Trnava"/>
  <station source="HAMLE013" netid="INTENSITY" code="CZ_00033" lat="50.282" lon="14.236" intensity="4.0" name="Velvary"/>
  <station source="HAMLE013" netid="INTENSITY" code="PL_00016" lat="51.149" lon="15.007" intensity="4.0" name="Zgorcelec"/>
  <station source="HAMLE013" netid="INTENSITY" code="AT_00045" lat="48.006" lon="16.232" intensity="3.0" name="Baden bei Wien"/>
  <station source="HAMLE013" netid="INTENSITY" code="CZ_00043" lat="49.610" lon="15.391" intensity="3.0" name="Čáslav"/>
  <station source="HAMLE013" netid="INTENSITY" code="CZ_00006" lat="49.713" lon="17.903" intensity="3.0" name="Fulnek"/>
  <station source="HAMLE013" netid="INTENSITY" code="DE_00079" lat="50.883" lon="12.072" intensity="3.0" name="Gera"/>
  <station source="HAMLE013" netid="INTENSITY" code="HU_00006" lat="47.688" lon="17.634" intensity="3.0" name="Győr"/>
  <station source="HAMLE013" netid="INTENSITY" code="DE_00132" lat="51.340" lon="12.375" intensity="3.0" name="Leipzig"/>
  <station source="HAMLE013" netid="INTENSITY" code="DE_00146" lat="51.163" lon="13.470" intensity="3.0" name="Meissen [Meißen]"/>
  <station source="HAMLE013" netid="INTENSITY" code="CZ_00015" lat="49.049" lon="14.196" intensity="3.0" name="Netolice"/>
  <station source="HAMLE013" netid="INTENSITY" code="CZ_00022" lat="49.013" lon="13.998" intensity="3.0" name="Prachatice"/>
  <station source="HAMLE013" netid="INTENSITY" code="AT_00667" lat="48.039" lon="14.419" intensity="3.0" name="Steyr"/>
  <station source="HAMLE013" netid="INTENSITY" code="CZ_00030" lat="50.560" lon="15.913" intensity="3.0" name="Trutnov"/>
  <station source="HAMLE013" netid="INTENSITY" code="PL_00012" lat="52.249" lon="21.012" intensity="3.0" name="Warsow"/>
  <station source="HAMLE013" netid="INTENSITY" code="DE_00239" lat="50.732" lon="12.375" intensity="3.0" name="Werdau"/>
  <station source="HAMLE013" netid="INTENSITY" code="AT_00779" lat="47.813" lon="16.244" intensity="3.0" name="Wiener Neustadt"/>
  <station source="HAMLE013" netid="INTENSITY" code="DE_00250" lat="50.896" lon="14.806" intensity="3.0" name="Zittau"/>
</stationlist>
