<?xml version="1.0" encoding="UTF-8"?>
<stationlist reference="DBMI15v4" created="20250807210105">
  <station source="CECI998a" netid="INTENSITY" code="SI_00225" lat="46.080" lon="14.471" intensity="8.5" name="Dravlje"/>
  <station source="CECI998a" netid="INTENSITY" code="SI_00055" lat="46.050" lon="14.507" intensity="8.5" name="Ljubljana"/>
  <station source="CECI998a" netid="INTENSITY" code="SI_00568" lat="46.170" lon="14.517" intensity="8.5" name="Utik"/>
  <station source="CECI998a" netid="INTENSITY" code="SI_00131" lat="46.190" lon="14.496" intensity="8.5" name="Vodice"/>
  <station source="CECI998a" netid="INTENSITY" code="SI_00291" lat="46.169" lon="14.524" intensity="8.0" name="Koseze"/>
  <station source="CECI998a" netid="INTENSITY" code="SI_00359" lat="46.165" lon="14.571" intensity="8.0" name="Mengeš"/>
  <station source="CECI998a" netid="INTENSITY" code="SI_00430" lat="46.056" lon="14.584" intensity="8.0" name="Polje (Zalog)"/>
  <station source="CECI998a" netid="INTENSITY" code="SI_00485" lat="46.101" lon="14.469" intensity="8.0" name="Šentvid pri Ljubljani"/>
  <station source="CECI998a" netid="INTENSITY" code="SI_00127" lat="46.135" lon="14.569" intensity="8.0" name="Trzin"/>
  <station source="CECI998a" netid="INTENSITY" code="SI_00586" lat="46.100" lon="14.464" intensity="8.0" name="Vižmarje"/>
  <station source="CECI998a" netid="INTENSITY" code="SI_00011" lat="46.228" lon="15.265" intensity="7.5" name="Celje"/>
  <station source="CECI998a" netid="INTENSITY" code="SI_00210" lat="46.088" lon="14.648" intensity="7.5" name="Dol pri Ljubljani"/>
  <station source="CECI998a" netid="INTENSITY" code="SI_00021" lat="46.144" lon="14.598" intensity="7.5" name="Domžale"/>
  <station source="CECI998a" netid="INTENSITY" code="SI_00249" lat="46.023" lon="14.303" intensity="7.5" name="Horjul"/>
  <station source="CECI998a" netid="INTENSITY" code="SI_00312" lat="46.088" lon="14.694" intensity="7.5" name="Laze pri Dolskem"/>
  <station source="CECI998a" netid="INTENSITY" code="SI_00358" lat="46.139" lon="14.419" intensity="7.5" name="Medvode"/>
  <station source="CECI998a" netid="INTENSITY" code="SI_00475" lat="46.243" lon="14.419" intensity="7.5" name="Šenčur"/>
  <station source="CECI998a" netid="INTENSITY" code="SI_00492" lat="46.074" lon="14.484" intensity="7.5" name="Šiška"/>
  <station source="CECI998a" netid="INTENSITY" code="SI_00105" lat="46.165" lon="14.307" intensity="7.5" name="Škofja Loka"/>
  <station source="CECI998a" netid="INTENSITY" code="SI_00496" lat="45.988" lon="14.577" intensity="7.5" name="Škofljica"/>
  <station source="CECI998a" netid="INTENSITY" code="SI_00110" lat="46.163" lon="14.435" intensity="7.5" name="Smlednik"/>
  <station source="CECI998a" netid="INTENSITY" code="SI_00531" lat="46.173" lon="14.306" intensity="7.5" name="Stara Loka"/>
  <station source="CECI998a" netid="INTENSITY" code="SI_00544" lat="46.145" lon="15.179" intensity="7.5" name="Sv. Jedrt pri Laškem"/>
  <station source="CECI998a" netid="INTENSITY" code="SI_00209" lat="46.054" lon="14.419" intensity="7.0" name="Dobrova pri Ljubljani"/>
  <station source="CECI998a" netid="INTENSITY" code="SI_00032" lat="46.001" lon="14.022" intensity="7.0" name="Idrija"/>
  <station source="CECI998a" netid="INTENSITY" code="SI_00080" lat="46.065" lon="14.312" intensity="7.0" name="Polhov Gradec"/>
  <station source="CECI998a" netid="INTENSITY" code="SI_00540" lat="46.055" lon="14.569" intensity="7.0" name="Studenec"/>
  <station source="CECI998a" netid="INTENSITY" code="SI_00614" lat="46.091" lon="14.818" intensity="7.0" name="Zgornji Hotič"/>
  <station source="CECI998a" netid="INTENSITY" code="SI_00152" lat="45.813" lon="14.380" intensity="6.5" name="Begunje pri Cerknici"/>
  <station source="CECI998a" netid="INTENSITY" code="HR_00084" lat="45.394" lon="14.803" intensity="6.5" name="Delnice"/>
  <station source="CECI998a" netid="INTENSITY" code="HR_00015" lat="45.493" lon="15.556" intensity="6.5" name="Karlovac"/>
  <station source="CECI998a" netid="INTENSITY" code="HR_00116" lat="46.089" lon="15.843" intensity="6.5" name="Krapinske Toplice"/>
  <station source="CECI998a" netid="INTENSITY" code="HR_00117" lat="45.653" lon="15.522" intensity="6.5" name="Krašić"/>
  <station source="CECI998a" netid="INTENSITY" code="HR_00139" lat="45.937" lon="16.173" intensity="6.5" name="Moravče"/>
  <station source="CECI998a" netid="INTENSITY" code="HR_00143" lat="45.316" lon="14.858" intensity="6.5" name="Mrkopalj"/>
  <station source="CECI998a" netid="INTENSITY" code="HR_00154" lat="45.440" lon="16.284" intensity="6.5" name="Petrinja"/>
  <station source="CECI998a" netid="INTENSITY" code="SI_00401" lat="45.837" lon="14.470" intensity="6.5" name="Pirmane"/>
  <station source="CECI998a" netid="INTENSITY" code="HR_00159" lat="46.165" lon="15.757" intensity="6.5" name="Pregrada"/>
  <station source="CECI998a" netid="INTENSITY" code="HR_00172" lat="45.802" lon="15.714" intensity="6.5" name="Samobor"/>
  <station source="CECI998a" netid="INTENSITY" code="HR_00192" lat="45.756" lon="17.055" intensity="6.5" name="Veliki Grđevac"/>
  <station source="CECI998a" netid="INTENSITY" code="HR_00202" lat="45.423" lon="15.661" intensity="6.5" name="Vukmanić"/>
  <station source="CECI998a" netid="INTENSITY" code="IT_21143" lat="45.734" lon="10.939" intensity="6.0" name="Avio"/>
  <station source="CECI998a" netid="INTENSITY" code="HR_00071" lat="46.139" lon="16.131" intensity="6.0" name="Belec"/>
  <station source="CECI998a" netid="INTENSITY" code="SI_00173" lat="45.905" lon="15.593" intensity="6.0" name="Brežice"/>
  <station source="CECI998a" netid="INTENSITY" code="SI_00174" lat="46.029" lon="14.353" intensity="6.0" name="Brezje pri Dobrovi"/>
  <station source="CECI998a" netid="INTENSITY" code="HR_00077" lat="45.407" lon="13.974" intensity="6.0" name="Buzet"/>
  <station source="CECI998a" netid="INTENSITY" code="HR_00080" lat="45.748" lon="16.617" intensity="6.0" name="Čazma"/>
  <station source="CECI998a" netid="INTENSITY" code="SI_00183" lat="46.249" lon="14.490" intensity="6.0" name="Cerklje na Gorenjskem"/>
  <station source="CECI998a" netid="INTENSITY" code="SI_00014" lat="46.129" lon="13.989" intensity="6.0" name="Cerkno"/>
  <station source="CECI998a" netid="INTENSITY" code="HR_00087" lat="46.299" lon="16.113" intensity="6.0" name="Donja Voća"/>
  <station source="CECI998a" netid="INTENSITY" code="SI_00226" lat="46.593" lon="15.032" intensity="6.0" name="Dravograd"/>
  <station source="CECI998a" netid="INTENSITY" code="HR_00093" lat="45.305" lon="14.719" intensity="6.0" name="Fužine"/>
  <station source="CECI998a" netid="INTENSITY" code="HR_00094" lat="45.978" lon="16.023" intensity="6.0" name="Gornja Stubica"/>
  <station source="CECI998a" netid="INTENSITY" code="SI_00028" lat="46.296" lon="14.809" intensity="6.0" name="Gornji Grad"/>
  <station source="CECI998a" netid="INTENSITY" code="SI_00248" lat="45.955" lon="14.661" intensity="6.0" name="Grosuplje"/>
  <station source="CECI998a" netid="INTENSITY" code="SI_00031" lat="46.146" lon="15.084" intensity="6.0" name="Hrastnik"/>
  <station source="CECI998a" netid="INTENSITY" code="HR_00102" lat="46.217" lon="15.694" intensity="6.0" name="Hum na Sutli"/>
  <station source="CECI998a" netid="INTENSITY" code="HR_00104" lat="46.223" lon="16.130" intensity="6.0" name="Ivanec"/>
  <station source="CECI998a" netid="INTENSITY" code="HR_00105" lat="45.672" lon="15.656" intensity="6.0" name="Jastrebarsko"/>
  <station source="CECI998a" netid="INTENSITY" code="SI_00272" lat="46.318" lon="14.199" intensity="6.0" name="Kamna Gorica"/>
  <station source="CECI998a" netid="INTENSITY" code="SI_00036" lat="46.226" lon="14.612" intensity="6.0" name="Kamnik"/>
  <station source="CECI998a" netid="INTENSITY" code="SI_00275" lat="46.088" lon="13.639" intensity="6.0" name="Kanal"/>
  <station source="CECI998a" netid="INTENSITY" code="SI_00276" lat="45.620" lon="14.191" intensity="6.0" name="Kilovče"/>
  <station source="CECI998a" netid="INTENSITY" code="HR_00112" lat="46.051" lon="15.749" intensity="6.0" name="Klanjec"/>
  <station source="CECI998a" netid="INTENSITY" code="SI_00039" lat="45.640" lon="14.860" intensity="6.0" name="Kočevje"/>
  <station source="CECI998a" netid="INTENSITY" code="SI_00289" lat="46.460" lon="15.614" intensity="6.0" name="Koprivnik"/>
  <station source="CECI998a" netid="INTENSITY" code="HR_00115" lat="45.991" lon="15.730" intensity="6.0" name="Kraljevec na Sotli"/>
  <station source="CECI998a" netid="INTENSITY" code="SI_00300" lat="46.102" lon="14.790" intensity="6.0" name="Kresnice"/>
  <station source="CECI998a" netid="INTENSITY" code="HR_00121" lat="45.335" lon="15.604" intensity="6.0" name="Krnjak"/>
  <station source="CECI998a" netid="INTENSITY" code="HR_00123" lat="45.658" lon="15.798" intensity="6.0" name="Kupinec"/>
  <station source="CECI998a" netid="INTENSITY" code="SI_00310" lat="46.155" lon="15.236" intensity="6.0" name="Laško"/>
  <station source="CECI998a" netid="INTENSITY" code="AT_00348" lat="46.670" lon="15.470" intensity="6.0" name="Leutschach"/>
  <station source="CECI998a" netid="INTENSITY" code="HR_00126" lat="45.278" lon="14.723" intensity="6.0" name="Lič"/>
  <station source="CECI998a" netid="INTENSITY" code="SI_00344" lat="46.355" lon="14.746" intensity="6.0" name="Luče"/>
  <station source="CECI998a" netid="INTENSITY" code="SI_00346" lat="46.170" lon="14.697" intensity="6.0" name="Lukovica pri Domžalah"/>
  <station source="CECI998a" netid="INTENSITY" code="HR_00132" lat="46.093" lon="16.048" intensity="6.0" name="Mače"/>
  <station source="CECI998a" netid="INTENSITY" code="SI_00063" lat="46.558" lon="15.646" intensity="6.0" name="Maribor"/>
  <station source="CECI998a" netid="INTENSITY" code="SI_00369" lat="46.004" lon="14.964" intensity="6.0" name="Moravče pri Gabrovki"/>
  <station source="CECI998a" netid="INTENSITY" code="SI_00374" lat="46.340" lon="14.961" intensity="6.0" name="Mozirje"/>
  <station source="CECI998a" netid="INTENSITY" code="SI_00395" lat="46.383" lon="15.151" intensity="6.0" name="Paka pri Velenju"/>
  <station source="CECI998a" netid="INTENSITY" code="HR_00037" lat="45.240" lon="13.936" intensity="6.0" name="Pazin [Pisino]"/>
  <station source="CECI998a" netid="INTENSITY" code="HR_00153" lat="45.603" lon="16.173" intensity="6.0" name="Pešćenica"/>
  <station source="CECI998a" netid="INTENSITY" code="SI_00406" lat="46.104" lon="15.405" intensity="6.0" name="Planina pri Sevnici"/>
  <station source="CECI998a" netid="INTENSITY" code="SI_00431" lat="46.067" lon="15.664" intensity="6.0" name="Polje pri Bistrici"/>
  <station source="CECI998a" netid="INTENSITY" code="HR_00163" lat="44.756" lon="14.761" intensity="6.0" name="Rab"/>
  <station source="CECI998a" netid="INTENSITY" code="SI_00091" lat="45.812" lon="14.320" intensity="6.0" name="Rakek"/>
  <station source="CECI998a" netid="INTENSITY" code="HR_00166" lat="45.579" lon="15.352" intensity="6.0" name="Ribnik"/>
  <station source="CECI998a" netid="INTENSITY" code="SI_00460" lat="45.851" lon="13.792" intensity="6.0" name="Rihenberk"/>
  <station source="CECI998a" netid="INTENSITY" code="SI_00095" lat="46.119" lon="15.208" intensity="6.0" name="Rimske Toplice"/>
  <station source="CECI998a" netid="INTENSITY" code="HR_00171" lat="45.698" lon="16.763" intensity="6.0" name="Šamarica"/>
  <station source="CECI998a" netid="INTENSITY" code="SI_00479" lat="45.839" lon="15.341" intensity="6.0" name="Šentjernej"/>
  <station source="CECI998a" netid="INTENSITY" code="SI_00486" lat="46.092" lon="15.439" intensity="6.0" name="Šentvid pri Planini"/>
  <station source="CECI998a" netid="INTENSITY" code="SI_00505" lat="46.228" lon="15.523" intensity="6.0" name="Šmarje pri Jelšah"/>
  <station source="CECI998a" netid="INTENSITY" code="SI_00510" lat="46.129" lon="14.477" intensity="6.0" name="Šmartno pod Šm. goro"/>
  <station source="CECI998a" netid="INTENSITY" code="SI_00511" lat="46.044" lon="14.851" intensity="6.0" name="Šmartno pri Litiji"/>
  <station source="CECI998a" netid="INTENSITY" code="SI_00521" lat="45.782" lon="15.028" intensity="6.0" name="Soteska"/>
  <station source="CECI998a" netid="INTENSITY" code="SI_00528" lat="46.292" lon="13.504" intensity="6.0" name="Šrpenica"/>
  <station source="CECI998a" netid="INTENSITY" code="AT_00640" lat="46.799" lon="15.759" intensity="6.0" name="St. Peter am Ottersbach"/>
  <station source="CECI998a" netid="INTENSITY" code="HR_00177" lat="45.812" lon="15.891" intensity="6.0" name="Stenjevec"/>
  <station source="CECI998a" netid="INTENSITY" code="SI_00545" lat="46.237" lon="15.097" intensity="6.0" name="Sv. Pavel pri Preboldu"/>
  <station source="CECI998a" netid="INTENSITY" code="HR_00184" lat="45.296" lon="15.980" intensity="6.0" name="Topusko"/>
  <station source="CECI998a" netid="INTENSITY" code="SI_00123" lat="46.150" lon="15.048" intensity="6.0" name="Trbovlje"/>
  <station source="CECI998a" netid="INTENSITY" code="HR_00186" lat="45.565" lon="14.634" intensity="6.0" name="Tršće"/>
  <station source="CECI998a" netid="INTENSITY" code="SI_00569" lat="46.119" lon="14.837" intensity="6.0" name="Vače"/>
  <station source="CECI998a" netid="INTENSITY" code="HR_00056" lat="46.311" lon="16.329" intensity="6.0" name="Varaždin"/>
  <station source="CECI998a" netid="INTENSITY" code="SI_00579" lat="45.849" lon="14.695" intensity="6.0" name="Videm"/>
  <station source="CECI998a" netid="INTENSITY" code="SI_00585" lat="45.958" lon="14.747" intensity="6.0" name="Višnja Gora"/>
  <station source="CECI998a" netid="INTENSITY" code="SI_00592" lat="46.244" lon="14.951" intensity="6.0" name="Vransko"/>
  <station source="CECI998a" netid="INTENSITY" code="SI_00135" lat="45.967" lon="14.300" intensity="6.0" name="Vrhnika"/>
  <station source="CECI998a" netid="INTENSITY" code="AT_00767" lat="46.750" lon="15.720" intensity="6.0" name="Weinburg"/>
  <station source="CECI998a" netid="INTENSITY" code="SI_00138" lat="46.133" lon="14.996" intensity="6.0" name="Zagorje ob Savi"/>
  <station source="CECI998a" netid="INTENSITY" code="HR_00065" lat="45.813" lon="15.976" intensity="6.0" name="Zagreb"/>
  <station source="CECI998a" netid="INTENSITY" code="SI_00606" lat="46.252" lon="15.167" intensity="6.0" name="Žalec"/>
  <station source="CECI998a" netid="INTENSITY" code="SI_00609" lat="46.386" lon="16.047" intensity="6.0" name="Zavrč"/>
  <station source="CECI998a" netid="INTENSITY" code="SI_00615" lat="46.227" lon="14.770" intensity="6.0" name="Zgornji Tuhinj"/>
  <station source="CECI998a" netid="INTENSITY" code="SI_00617" lat="46.315" lon="15.484" intensity="6.0" name="Žiče"/>
  <station source="CECI998a" netid="INTENSITY" code="SI_00619" lat="46.046" lon="14.113" intensity="6.0" name="Žiri"/>
  <station source="CECI998a" netid="INTENSITY" code="HR_00208" lat="46.093" lon="16.082" intensity="6.0" name="Zlatar"/>
  <station source="CECI998a" netid="INTENSITY" code="SI_00143" lat="45.888" lon="13.906" intensity="5.5" name="Ajdovščina"/>
  <station source="CECI998a" netid="INTENSITY" code="SI_00147" lat="46.103" lon="13.682" intensity="5.5" name="Avče"/>
  <station source="CECI998a" netid="INTENSITY" code="SI_00150" lat="46.377" lon="14.202" intensity="5.5" name="Begunje na Gorenjskem"/>
  <station source="CECI998a" netid="INTENSITY" code="AT_00057" lat="46.588" lon="14.798" intensity="5.5" name="Bleiburg"/>
  <station source="CECI998a" netid="INTENSITY" code="SI_00158" lat="46.272" lon="13.953" intensity="5.5" name="Bohinjska Bistrica"/>
  <station source="CECI998a" netid="INTENSITY" code="SI_00003" lat="45.917" lon="14.367" intensity="5.5" name="Borovnica"/>
  <station source="CECI998a" netid="INTENSITY" code="SI_00170" lat="45.998" lon="14.508" intensity="5.5" name="Brest"/>
  <station source="CECI998a" netid="INTENSITY" code="SI_00178" lat="45.874" lon="13.956" intensity="5.5" name="Budanje"/>
  <station source="CECI998a" netid="INTENSITY" code="SI_00013" lat="45.796" lon="14.362" intensity="5.5" name="Cerknica"/>
  <station source="CECI998a" netid="INTENSITY" code="IT_30786" lat="45.822" lon="13.338" intensity="5.5" name="Cervignano del Friuli"/>
  <station source="CECI998a" netid="INTENSITY" code="SI_00691" lat="45.926" lon="14.043" intensity="5.5" name="Črni Vrh pri Idriji"/>
  <station source="CECI998a" netid="INTENSITY" code="SI_00213" lat="45.755" lon="15.063" intensity="5.5" name="Dolenjske Toplice"/>
  <station source="CECI998a" netid="INTENSITY" code="SI_00228" lat="45.910" lon="14.382" intensity="5.5" name="Dražica"/>
  <station source="CECI998a" netid="INTENSITY" code="AT_00100" lat="46.730" lon="15.590" intensity="5.5" name="Ehrenhausen"/>
  <station source="CECI998a" netid="INTENSITY" code="AT_00101" lat="46.686" lon="15.244" intensity="5.5" name="Eibiswald"/>
  <station source="CECI998a" netid="INTENSITY" code="AT_00104" lat="46.490" lon="14.590" intensity="5.5" name="Eisenkappel"/>
  <station source="CECI998a" netid="INTENSITY" code="SI_00236" lat="46.030" lon="13.843" intensity="5.5" name="Gorenja Trebuša"/>
  <station source="CECI998a" netid="INTENSITY" code="IT_31919" lat="45.946" lon="13.625" intensity="5.5" name="Gorizia"/>
  <station source="CECI998a" netid="INTENSITY" code="SI_00242" lat="46.169" lon="14.686" intensity="5.5" name="grad Brdo pri Lukovici"/>
  <station source="CECI998a" netid="INTENSITY" code="HR_00097" lat="45.203" lon="14.718" intensity="5.5" name="Grižane"/>
  <station source="CECI998a" netid="INTENSITY" code="SI_00253" lat="46.175" lon="14.455" intensity="5.5" name="Hraše (pri Smledniku)"/>
  <station source="CECI998a" netid="INTENSITY" code="SI_00263" lat="45.940" lon="14.517" intensity="5.5" name="Iška vas"/>
  <station source="CECI998a" netid="INTENSITY" code="SI_00264" lat="46.154" lon="14.931" intensity="5.5" name="Izlake"/>
  <station source="CECI998a" netid="INTENSITY" code="SI_00271" lat="46.090" lon="14.520" intensity="5.5" name="Ježica"/>
  <station source="CECI998a" netid="INTENSITY" code="AT_00260" lat="47.090" lon="15.950" intensity="5.5" name="Kalsdorf"/>
  <station source="CECI998a" netid="INTENSITY" code="HR_00017" lat="45.448" lon="14.376" intensity="5.5" name="Klana"/>
  <station source="CECI998a" netid="INTENSITY" code="SI_00282" lat="46.337" lon="14.516" intensity="5.5" name="Kokra"/>
  <station source="CECI998a" netid="INTENSITY" code="SI_00290" lat="45.553" lon="14.246" intensity="5.5" name="Koseze"/>
  <station source="CECI998a" netid="INTENSITY" code="SI_00045" lat="45.845" lon="15.421" intensity="5.5" name="Kostanjevica na Krki"/>
  <station source="CECI998a" netid="INTENSITY" code="SI_00294" lat="46.073" lon="15.560" intensity="5.5" name="Kozje"/>
  <station source="CECI998a" netid="INTENSITY" code="SI_00048" lat="46.239" lon="14.356" intensity="5.5" name="Kranj [Krainburg]"/>
  <station source="CECI998a" netid="INTENSITY" code="HR_00118" lat="45.663" lon="16.526" intensity="5.5" name="Križ (?)"/>
  <station source="CECI998a" netid="INTENSITY" code="SI_00301" lat="45.882" lon="14.783" intensity="5.5" name="Krka"/>
  <station source="CECI998a" netid="INTENSITY" code="SI_00051" lat="46.297" lon="14.200" intensity="5.5" name="Kropa"/>
  <station source="CECI998a" netid="INTENSITY" code="HR_00125" lat="46.208" lon="16.051" intensity="5.5" name="Lepoglava"/>
  <station source="CECI998a" netid="INTENSITY" code="SI_00054" lat="46.056" lon="14.830" intensity="5.5" name="Litija"/>
  <station source="CECI998a" netid="INTENSITY" code="SI_00338" lat="45.918" lon="14.230" intensity="5.5" name="Logatec"/>
  <station source="CECI998a" netid="INTENSITY" code="SI_00355" lat="45.995" lon="14.518" intensity="5.5" name="Matena"/>
  <station source="CECI998a" netid="INTENSITY" code="SI_00357" lat="46.160" lon="14.851" intensity="5.5" name="Medija"/>
  <station source="CECI998a" netid="INTENSITY" code="SI_00365" lat="45.858" lon="15.092" intensity="5.5" name="Mirna Peč"/>
  <station source="CECI998a" netid="INTENSITY" code="SI_00366" lat="45.944" lon="15.147" intensity="5.5" name="Mokronog"/>
  <station source="CECI998a" netid="INTENSITY" code="SI_00065" lat="46.215" lon="14.886" intensity="5.5" name="Motnik"/>
  <station source="CECI998a" netid="INTENSITY" code="SI_00381" lat="46.314" lon="15.291" intensity="5.5" name="Nova Cerkev"/>
  <station source="CECI998a" netid="INTENSITY" code="IT_31928" lat="45.963" lon="13.615" intensity="5.5" name="Piuma"/>
  <station source="CECI998a" netid="INTENSITY" code="SI_00412" lat="46.305" lon="14.276" intensity="5.5" name="Podbrezje"/>
  <station source="CECI998a" netid="INTENSITY" code="SI_00414" lat="46.158" lon="15.602" intensity="5.5" name="Podčetrtek"/>
  <station source="CECI998a" netid="INTENSITY" code="SI_00415" lat="45.528" lon="13.957" intensity="5.5" name="Podgorje"/>
  <station source="CECI998a" netid="INTENSITY" code="SI_00417" lat="46.468" lon="15.095" intensity="5.5" name="Podgorje pri Sl. Gradcu"/>
  <station source="CECI998a" netid="INTENSITY" code="SI_00420" lat="46.397" lon="14.287" intensity="5.5" name="Podljubelj"/>
  <station source="CECI998a" netid="INTENSITY" code="SI_00425" lat="46.297" lon="14.260" intensity="5.5" name="Podnart"/>
  <station source="CECI998a" netid="INTENSITY" code="SI_00428" lat="46.314" lon="15.579" intensity="5.5" name="Poljčane"/>
  <station source="CECI998a" netid="INTENSITY" code="SI_00082" lat="45.776" lon="14.214" intensity="5.5" name="Postojna"/>
  <station source="CECI998a" netid="INTENSITY" code="SI_00445" lat="46.616" lon="15.231" intensity="5.5" name="Radlje ob Dravi"/>
  <station source="CECI998a" netid="INTENSITY" code="SI_00447" lat="45.944" lon="14.866" intensity="5.5" name="Radohova vas"/>
  <station source="CECI998a" netid="INTENSITY" code="SI_00089" lat="46.343" lon="14.177" intensity="5.5" name="Radovljica"/>
  <station source="CECI998a" netid="INTENSITY" code="SI_00454" lat="45.757" lon="14.064" intensity="5.5" name="Razdrto"/>
  <station source="CECI998a" netid="INTENSITY" code="SI_00456" lat="45.890" lon="13.675" intensity="5.5" name="Renče"/>
  <station source="CECI998a" netid="INTENSITY" code="SI_00459" lat="46.537" lon="15.276" intensity="5.5" name="Ribnica na Pohorju"/>
  <station source="CECI998a" netid="INTENSITY" code="SI_00464" lat="46.149" lon="14.599" intensity="5.5" name="Rodica"/>
  <station source="CECI998a" netid="INTENSITY" code="SI_00480" lat="46.217" lon="15.396" intensity="5.5" name="Šentjur pri Celju"/>
  <station source="CECI998a" netid="INTENSITY" code="SI_00489" lat="46.012" lon="15.298" intensity="5.5" name="Sevnica"/>
  <station source="CECI998a" netid="INTENSITY" code="SI_00509" lat="46.006" lon="13.561" intensity="5.5" name="Šmartno"/>
  <station source="CECI998a" netid="INTENSITY" code="SI_00116" lat="46.297" lon="13.925" intensity="5.5" name="Srednja Vas v Bohinju"/>
  <station source="CECI998a" netid="INTENSITY" code="SI_00532" lat="45.726" lon="14.922" intensity="5.5" name="Stari Log"/>
  <station source="CECI998a" netid="INTENSITY" code="SI_00533" lat="45.494" lon="15.082" intensity="5.5" name="Stari Trg ob Kolpi"/>
  <station source="CECI998a" netid="INTENSITY" code="SI_00534" lat="45.714" lon="14.471" intensity="5.5" name="Stari Trg pri Ložu"/>
  <station source="CECI998a" netid="INTENSITY" code="SI_00535" lat="45.957" lon="14.810" intensity="5.5" name="Stična"/>
  <station source="CECI998a" netid="INTENSITY" code="AT_00678" lat="46.730" lon="15.650" intensity="5.5" name="Strass"/>
  <station source="CECI998a" netid="INTENSITY" code="SI_00124" lat="45.908" lon="15.012" intensity="5.5" name="Trebnje"/>
  <station source="CECI998a" netid="INTENSITY" code="IT_32084" lat="45.650" lon="13.772" intensity="5.5" name="Trieste"/>
  <station source="CECI998a" netid="INTENSITY" code="SI_00648" lat="45.572" lon="14.241" intensity="5.5" name="Trnovo pri Bistrici"/>
  <station source="CECI998a" netid="INTENSITY" code="SI_00560" lat="46.188" lon="14.888" intensity="5.5" name="Trojane"/>
  <station source="CECI998a" netid="INTENSITY" code="SI_00571" lat="45.931" lon="14.973" intensity="5.5" name="Velika Loka"/>
  <station source="CECI998a" netid="INTENSITY" code="SI_00576" lat="45.837" lon="14.642" intensity="5.5" name="Velike Lašče"/>
  <station source="CECI998a" netid="INTENSITY" code="SI_00578" lat="46.416" lon="15.507" intensity="5.5" name="Veliko Tinje"/>
  <station source="CECI998a" netid="INTENSITY" code="AT_00741" lat="46.614" lon="13.845" intensity="5.5" name="Villach"/>
  <station source="CECI998a" netid="INTENSITY" code="SI_00589" lat="46.292" lon="15.302" intensity="5.5" name="Vojnik"/>
  <station source="CECI998a" netid="INTENSITY" code="SI_00594" lat="45.657" lon="14.035" intensity="5.5" name="Vremski Britof"/>
  <station source="CECI998a" netid="INTENSITY" code="" lat="46.050" lon="14.563" intensity="5.5" name="[unknown]"/>
  <station source="CECI998a" netid="INTENSITY" code="IT_30671" lat="45.768" lon="13.370" intensity="5.0" name="Aquileia"/>
  <station source="CECI998a" netid="INTENSITY" code="AT_00026" lat="46.730" lon="13.850" intensity="5.0" name="Arriach"/>
  <station source="CECI998a" netid="INTENSITY" code="SI_00149" lat="45.512" lon="14.879" intensity="5.0" name="Banjaloka"/>
  <station source="CECI998a" netid="INTENSITY" code="SI_00002" lat="46.369" lon="14.113" intensity="5.0" name="Bled"/>
  <station source="CECI998a" netid="INTENSITY" code="SI_00005" lat="46.338" lon="13.553" intensity="5.0" name="Bovec"/>
  <station source="CECI998a" netid="INTENSITY" code="AT_00068" lat="47.030" lon="15.960" intensity="5.0" name="Breitenfeld"/>
  <station source="CECI998a" netid="INTENSITY" code="IT_32000" lat="45.897" lon="13.569" intensity="5.0" name="Castel Rubbia"/>
  <station source="CECI998a" netid="INTENSITY" code="IT_31887" lat="45.959" lon="13.468" intensity="5.0" name="Cormons"/>
  <station source="CECI998a" netid="INTENSITY" code="SI_00201" lat="45.547" lon="13.819" intensity="5.0" name="Dekani"/>
  <station source="CECI998a" netid="INTENSITY" code="SI_00203" lat="45.682" lon="13.975" intensity="5.0" name="Divača"/>
  <station source="CECI998a" netid="INTENSITY" code="IT_31900" lat="46.031" lon="13.479" intensity="5.0" name="Dolegna del Collio"/>
  <station source="CECI998a" netid="INTENSITY" code="HR_00086" lat="46.315" lon="16.811" intensity="5.0" name="Donja Dubrava"/>
  <station source="CECI998a" netid="INTENSITY" code="IT_31908" lat="45.907" lon="13.518" intensity="5.0" name="Farra d'Isonzo"/>
  <station source="CECI998a" netid="INTENSITY" code="AT_00118" lat="46.527" lon="14.302" intensity="5.0" name="Ferlach"/>
  <station source="CECI998a" netid="INTENSITY" code="IT_30956" lat="45.791" lon="13.408" intensity="5.0" name="Fiumicello (San Valentino)"/>
  <station source="CECI998a" netid="INTENSITY" code="SI_00234" lat="46.001" lon="14.992" intensity="5.0" name="Gabrovka"/>
  <station source="CECI998a" netid="INTENSITY" code="SI_00239" lat="45.666" lon="14.075" intensity="5.0" name="Gornje Ležeče"/>
  <station source="CECI998a" netid="INTENSITY" code="AT_00164" lat="46.910" lon="15.920" intensity="5.0" name="Gossendorf"/>
  <station source="CECI998a" netid="INTENSITY" code="IT_31937" lat="45.890" lon="13.498" intensity="5.0" name="Gradisca d'Isonzo"/>
  <station source="CECI998a" netid="INTENSITY" code="AT_00171" lat="46.611" lon="14.466" intensity="5.0" name="Grafenstein"/>
  <station source="CECI998a" netid="INTENSITY" code="AT_00213" lat="46.627" lon="13.372" intensity="5.0" name="Hermagor"/>
  <station source="CECI998a" netid="INTENSITY" code="SI_00252" lat="45.797" lon="13.990" intensity="5.0" name="Hrašče"/>
  <station source="CECI998a" netid="INTENSITY" code="SI_00266" lat="45.501" lon="14.276" intensity="5.0" name="Jelšane"/>
  <station source="CECI998a" netid="INTENSITY" code="SI_00270" lat="45.859" lon="15.696" intensity="5.0" name="Jesenice na Dolenjskem"/>
  <station source="CECI998a" netid="INTENSITY" code="SI_00038" lat="46.247" lon="13.579" intensity="5.0" name="Kobarid [Caporetto]"/>
  <station source="CECI998a" netid="INTENSITY" code="SI_00305" lat="45.892" lon="15.576" intensity="5.0" name="Krška vas"/>
  <station source="CECI998a" netid="INTENSITY" code="SI_00306" lat="45.959" lon="15.495" intensity="5.0" name="Krško"/>
  <station source="CECI998a" netid="INTENSITY" code="SI_00052" lat="46.360" lon="14.160" intensity="5.0" name="Lesce"/>
  <station source="CECI998a" netid="INTENSITY" code="HU_00105" lat="46.433" lon="16.724" intensity="5.0" name="Letenye"/>
  <station source="CECI998a" netid="INTENSITY" code="SI_00322" lat="46.168" lon="13.778" intensity="5.0" name="Ljubinj"/>
  <station source="CECI998a" netid="INTENSITY" code="SI_00335" lat="46.518" lon="16.197" intensity="5.0" name="Ljutomer"/>
  <station source="CECI998a" netid="INTENSITY" code="IT_31924" lat="45.936" lon="13.575" intensity="5.0" name="Lucinico"/>
  <station source="CECI998a" netid="INTENSITY" code="SI_00347" lat="46.317" lon="15.667" intensity="5.0" name="Makole"/>
  <station source="CECI998a" netid="INTENSITY" code="SI_00349" lat="46.521" lon="16.059" intensity="5.0" name="Mala Nedelja"/>
  <station source="CECI998a" netid="INTENSITY" code="SI_00353" lat="46.204" lon="15.087" intensity="5.0" name="Marija Reka"/>
  <station source="CECI998a" netid="INTENSITY" code="SI_00370" lat="46.153" lon="13.749" intensity="5.0" name="Most na Soči"/>
  <station source="CECI998a" netid="INTENSITY" code="HR_00028" lat="45.336" lon="13.828" intensity="5.0" name="Motovun [Montona]"/>
  <station source="CECI998a" netid="INTENSITY" code="SI_00070" lat="45.804" lon="15.170" intensity="5.0" name="Novo mesto"/>
  <station source="CECI998a" netid="INTENSITY" code="AT_00444" lat="46.690" lon="15.330" intensity="5.0" name="Oberhaag"/>
  <station source="CECI998a" netid="INTENSITY" code="AT_00465" lat="46.675" lon="13.984" intensity="5.0" name="Ossiach"/>
  <station source="CECI998a" netid="INTENSITY" code="IT_31969" lat="45.809" lon="13.444" intensity="5.0" name="Pieris"/>
  <station source="CECI998a" netid="INTENSITY" code="SI_00075" lat="45.528" lon="13.568" intensity="5.0" name="Piran [Pirano]"/>
  <station source="CECI998a" netid="INTENSITY" code="AT_00479" lat="46.690" lon="14.460" intensity="5.0" name="Pischeldorf"/>
  <station source="CECI998a" netid="INTENSITY" code="HR_00155" lat="45.138" lon="14.184" intensity="5.0" name="Plomin"/>
  <station source="CECI998a" netid="INTENSITY" code="SI_00079" lat="45.798" lon="13.972" intensity="5.0" name="Podnanos"/>
  <station source="CECI998a" netid="INTENSITY" code="SI_00433" lat="46.138" lon="13.821" intensity="5.0" name="Ponikve"/>
  <station source="CECI998a" netid="INTENSITY" code="HR_00039" lat="45.227" lon="13.595" intensity="5.0" name="Poreč [Parenzo]"/>
  <station source="CECI998a" netid="INTENSITY" code="SI_00453" lat="45.469" lon="13.970" intensity="5.0" name="Rakitovec"/>
  <station source="CECI998a" netid="INTENSITY" code="SI_00462" lat="46.245" lon="13.519" intensity="5.0" name="Robič"/>
  <station source="CECI998a" netid="INTENSITY" code="AT_00551" lat="46.670" lon="13.920" intensity="5.0" name="Sattendorf"/>
  <station source="CECI998a" netid="INTENSITY" code="SI_00468" lat="46.088" lon="14.892" intensity="5.0" name="Sava"/>
  <station source="CECI998a" netid="INTENSITY" code="AT_00567" lat="46.678" lon="14.942" intensity="5.0" name="Schwarzenbach"/>
  <station source="CECI998a" netid="INTENSITY" code="SI_00101" lat="45.929" lon="13.748" intensity="5.0" name="Šempas"/>
  <station source="CECI998a" netid="INTENSITY" code="SI_00473" lat="45.930" lon="13.640" intensity="5.0" name="Šempeter pri Gorici"/>
  <station source="CECI998a" netid="INTENSITY" code="SI_00483" lat="45.977" lon="15.091" intensity="5.0" name="Šentrupert"/>
  <station source="CECI998a" netid="INTENSITY" code="SI_00487" lat="45.953" lon="14.838" intensity="5.0" name="Šentvid pri Stični"/>
  <station source="CECI998a" netid="INTENSITY" code="IT_72355" lat="45.626" lon="13.785" intensity="5.0" name="Servola"/>
  <station source="CECI998a" netid="INTENSITY" code="AT_00583" lat="47.787" lon="16.531" intensity="5.0" name="Siegendorf im Burgenland"/>
  <station source="CECI998a" netid="INTENSITY" code="SI_00501" lat="46.339" lon="15.426" intensity="5.0" name="Slovenske Konjice"/>
  <station source="CECI998a" netid="INTENSITY" code="SI_00516" lat="46.343" lon="13.674" intensity="5.0" name="Soča"/>
  <station source="CECI998a" netid="INTENSITY" code="SI_00518" lat="45.970" lon="13.650" intensity="5.0" name="Solkan"/>
  <station source="CECI998a" netid="INTENSITY" code="AT_00658" lat="46.740" lon="15.240" intensity="5.0" name="Steieregg"/>
  <station source="CECI998a" netid="INTENSITY" code="SI_00537" lat="45.770" lon="15.210" intensity="5.0" name="Stopiče"/>
  <station source="CECI998a" netid="INTENSITY" code="AT_00684" lat="46.520" lon="14.150" intensity="5.0" name="Suetschach"/>
  <station source="CECI998a" netid="INTENSITY" code="SI_00542" lat="46.312" lon="15.758" intensity="5.0" name="Sv. Bolfenk pri Ptuju"/>
  <station source="CECI998a" netid="INTENSITY" code="IT_31703" lat="46.504" lon="13.583" intensity="5.0" name="Tarvisio"/>
  <station source="CECI998a" netid="INTENSITY" code="SI_00122" lat="46.184" lon="13.734" intensity="5.0" name="Tolmin"/>
  <station source="CECI998a" netid="INTENSITY" code="SI_00558" lat="45.973" lon="13.742" intensity="5.0" name="Trnovo pri Gorici"/>
  <station source="CECI998a" netid="INTENSITY" code="SI_00565" lat="46.290" lon="14.431" intensity="5.0" name="Tupaliče"/>
  <station source="CECI998a" netid="INTENSITY" code="SI_00128" lat="45.878" lon="14.609" intensity="5.0" name="Turjak"/>
  <station source="CECI998a" netid="INTENSITY" code="SI_00584" lat="45.848" lon="13.967" intensity="5.0" name="Vipava"/>
  <station source="CECI998a" netid="INTENSITY" code="HR_00197" lat="44.960" lon="13.856" intensity="5.0" name="Vodnjan"/>
  <station source="CECI998a" netid="INTENSITY" code="AT_00746" lat="46.661" lon="14.633" intensity="5.0" name="Völkermarkt"/>
  <station source="CECI998a" netid="INTENSITY" code="SI_00613" lat="46.380" lon="14.073" intensity="5.0" name="Zgornje Gorje"/>
  <station source="CECI998a" netid="INTENSITY" code="SI_00623" lat="45.832" lon="14.938" intensity="5.0" name="Žužemberk"/>
  <station source="CECI998a" netid="INTENSITY" code="IT_72349" lat="45.606" lon="13.810" intensity="4.5" name="Aquilina"/>
  <station source="CECI998a" netid="INTENSITY" code="AT_00025" lat="46.550" lon="13.704" intensity="4.5" name="Arnoldstein"/>
  <station source="CECI998a" netid="INTENSITY" code="SI_00148" lat="46.223" lon="13.975" intensity="4.5" name="Bača pri Podbrdu"/>
  <station source="CECI998a" netid="INTENSITY" code="SI_00153" lat="46.246" lon="14.724" intensity="4.5" name="Bela Peč"/>
  <station source="CECI998a" netid="INTENSITY" code="SI_00154" lat="45.997" lon="13.535" intensity="4.5" name="Biljana"/>
  <station source="CECI998a" netid="INTENSITY" code="HR_00072" lat="45.302" lon="14.126" intensity="4.5" name="Boljun"/>
  <station source="CECI998a" netid="INTENSITY" code="SI_00166" lat="46.288" lon="15.040" intensity="4.5" name="Braslovče"/>
  <station source="CECI998a" netid="INTENSITY" code="SI_00169" lat="46.263" lon="13.428" intensity="4.5" name="Breginj"/>
  <station source="CECI998a" netid="INTENSITY" code="SI_00176" lat="46.588" lon="16.110" intensity="4.5" name="Bučečovci"/>
  <station source="CECI998a" netid="INTENSITY" code="IT_20350" lat="46.412" lon="11.242" intensity="4.5" name="Caldaro sulla Strada del Vino"/>
  <station source="CECI998a" netid="INTENSITY" code="IT_21323" lat="46.291" lon="11.460" intensity="4.5" name="Cavalese"/>
  <station source="CECI998a" netid="INTENSITY" code="IT_72348" lat="45.863" lon="13.386" intensity="4.5" name="Cavenzano"/>
  <station source="CECI998a" netid="INTENSITY" code="SI_00188" lat="45.881" lon="14.001" intensity="4.5" name="Col"/>
  <station source="CECI998a" netid="INTENSITY" code="HR_00008" lat="44.960" lon="14.408" intensity="4.5" name="Cres"/>
  <station source="CECI998a" netid="INTENSITY" code="HR_00083" lat="45.174" lon="14.690" intensity="4.5" name="Crikvenica"/>
  <station source="CECI998a" netid="INTENSITY" code="SI_00190" lat="45.774" lon="15.198" intensity="4.5" name="Črmošnjice pri Stopičah"/>
  <station source="CECI998a" netid="INTENSITY" code="SI_00197" lat="45.574" lon="15.199" intensity="4.5" name="Črnomelj"/>
  <station source="CECI998a" netid="INTENSITY" code="AT_00081" lat="46.816" lon="15.214" intensity="4.5" name="Deutschlandsberg"/>
  <station source="CECI998a" netid="INTENSITY" code="HR_00085" lat="45.130" lon="14.604" intensity="4.5" name="Dobrinj"/>
  <station source="CECI998a" netid="INTENSITY" code="SI_00211" lat="46.030" lon="15.027" intensity="4.5" name="Dole pri Litiji"/>
  <station source="CECI998a" netid="INTENSITY" code="SI_00212" lat="45.707" lon="14.758" intensity="4.5" name="Dolenja vas"/>
  <station source="CECI998a" netid="INTENSITY" code="SI_00216" lat="45.665" lon="14.128" intensity="4.5" name="Dolnja Košana"/>
  <station source="CECI998a" netid="INTENSITY" code="SI_00217" lat="45.660" lon="14.042" intensity="4.5" name="Dolnje Vreme"/>
  <station source="CECI998a" netid="INTENSITY" code="AT_00092" lat="46.990" lon="14.390" intensity="4.5" name="Duernstein"/>
  <station source="CECI998a" netid="INTENSITY" code="IT_32009" lat="45.750" lon="13.669" intensity="4.5" name="Duino-Aurisina (Aurisina)"/>
  <station source="CECI998a" netid="INTENSITY" code="SI_00231" lat="45.810" lon="14.971" intensity="4.5" name="Dvor"/>
  <station source="CECI998a" netid="INTENSITY" code="AT_00093" lat="46.850" lon="13.890" intensity="4.5" name="Ebene Reichenau"/>
  <station source="CECI998a" netid="INTENSITY" code="AT_00096" lat="46.810" lon="14.560" intensity="4.5" name="Eberstein"/>
  <station source="CECI998a" netid="INTENSITY" code="AT_00113" lat="46.700" lon="13.660" intensity="4.5" name="Feistritz an der Drau"/>
  <station source="CECI998a" netid="INTENSITY" code="AT_00115" lat="46.954" lon="15.889" intensity="4.5" name="Feldbach"/>
  <station source="CECI998a" netid="INTENSITY" code="IT_21435" lat="46.176" lon="11.829" intensity="4.5" name="Fiera di Primiero"/>
  <station source="CECI998a" netid="INTENSITY" code="SI_00232" lat="46.457" lon="15.634" intensity="4.5" name="Fram"/>
  <station source="CECI998a" netid="INTENSITY" code="HR_00092" lat="45.357" lon="14.310" intensity="4.5" name="Frančići kod Rijeke"/>
  <station source="CECI998a" netid="INTENSITY" code="AT_00133" lat="46.951" lon="14.406" intensity="4.5" name="Friesach"/>
  <station source="CECI998a" netid="INTENSITY" code="AT_00154" lat="46.750" lon="15.370" intensity="4.5" name="Gleinstaetten"/>
  <station source="CECI998a" netid="INTENSITY" code="AT_00158" lat="46.910" lon="13.530" intensity="4.5" name="Gmuend"/>
  <station source="CECI998a" netid="INTENSITY" code="SI_00237" lat="46.107" lon="14.150" intensity="4.5" name="Gorenja vas"/>
  <station source="CECI998a" netid="INTENSITY" code="AT_00162" lat="46.600" lon="14.260" intensity="4.5" name="Goritschitzen"/>
  <station source="CECI998a" netid="INTENSITY" code="SI_00245" lat="46.157" lon="13.866" intensity="4.5" name="Grahovo ob Bači"/>
  <station source="CECI998a" netid="INTENSITY" code="AT_00173" lat="47.071" lon="15.438" intensity="4.5" name="Graz"/>
  <station source="CECI998a" netid="INTENSITY" code="AT_00182" lat="46.824" lon="15.317" intensity="4.5" name="Gross St. Florian"/>
  <station source="CECI998a" netid="INTENSITY" code="AT_00188" lat="46.660" lon="13.770" intensity="4.5" name="Gummern"/>
  <station source="CECI998a" netid="INTENSITY" code="AT_00235" lat="46.790" lon="15.220" intensity="4.5" name="Hollenberg"/>
  <station source="CECI998a" netid="INTENSITY" code="SI_00030" lat="45.930" lon="14.140" intensity="4.5" name="Hotedršica"/>
  <station source="CECI998a" netid="INTENSITY" code="SI_00256" lat="45.603" lon="13.952" intensity="4.5" name="Hrpelje"/>
  <station source="CECI998a" netid="INTENSITY" code="SI_00257" lat="46.414" lon="16.200" intensity="4.5" name="Hum pri Ormožu"/>
  <station source="CECI998a" netid="INTENSITY" code="AT_00242" lat="47.090" lon="15.930" intensity="4.5" name="Ilz"/>
  <station source="CECI998a" netid="INTENSITY" code="AT_00250" lat="46.730" lon="15.280" intensity="4.5" name="Jagernigg"/>
  <station source="CECI998a" netid="INTENSITY" code="SI_00035" lat="46.436" lon="14.064" intensity="4.5" name="Jesenice"/>
  <station source="CECI998a" netid="INTENSITY" code="AT_00257" lat="47.169" lon="14.662" intensity="4.5" name="Judenburg"/>
  <station source="CECI998a" netid="INTENSITY" code="HR_00107" lat="45.123" lon="13.842" intensity="4.5" name="Kanfanar"/>
  <station source="CECI998a" netid="INTENSITY" code="AT_00288" lat="46.624" lon="14.308" intensity="4.5" name="Klagenfurt"/>
  <station source="CECI998a" netid="INTENSITY" code="SI_00277" lat="45.626" lon="14.244" intensity="4.5" name="Knežak"/>
  <station source="CECI998a" netid="INTENSITY" code="AT_00307" lat="46.650" lon="14.010" intensity="4.5" name="Köstenberg"/>
  <station source="CECI998a" netid="INTENSITY" code="SI_00299" lat="46.250" lon="13.517" intensity="4.5" name="Kred"/>
  <station source="CECI998a" netid="INTENSITY" code="HR_00124" lat="45.086" lon="14.128" intensity="4.5" name="Labin"/>
  <station source="CECI998a" netid="INTENSITY" code="AT_00332" lat="47.060" lon="15.060" intensity="4.5" name="Lankowitz"/>
  <station source="CECI998a" netid="INTENSITY" code="SI_00309" lat="46.347" lon="15.598" intensity="4.5" name="Laporje"/>
  <station source="CECI998a" netid="INTENSITY" code="AT_00336" lat="46.610" lon="13.460" intensity="4.5" name="Latschach"/>
  <station source="CECI998a" netid="INTENSITY" code="AT_00349" lat="46.980" lon="14.780" intensity="4.5" name="Lichtengraben"/>
  <station source="CECI998a" netid="INTENSITY" code="AT_00353" lat="46.830" lon="12.766" intensity="4.5" name="Lienz"/>
  <station source="CECI998a" netid="INTENSITY" code="AT_00359" lat="46.604" lon="14.003" intensity="4.5" name="Lind ob Velden"/>
  <station source="CECI998a" netid="INTENSITY" code="SI_00318" lat="46.531" lon="14.903" intensity="4.5" name="Liše"/>
  <station source="CECI998a" netid="INTENSITY" code="SI_00337" lat="46.312" lon="13.494" intensity="4.5" name="Log Čezsoški"/>
  <station source="CECI998a" netid="INTENSITY" code="SI_00340" lat="45.662" lon="13.934" intensity="4.5" name="Lokev"/>
  <station source="CECI998a" netid="INTENSITY" code="SI_00341" lat="46.538" lon="15.389" intensity="4.5" name="Lovrenc na Pohorju"/>
  <station source="CECI998a" netid="INTENSITY" code="SI_00637" lat="45.726" lon="14.469" intensity="4.5" name="Lož"/>
  <station source="CECI998a" netid="INTENSITY" code="HR_00133" lat="44.531" lon="14.475" intensity="4.5" name="Mali Lošinj"/>
  <station source="CECI998a" netid="INTENSITY" code="HR_00134" lat="45.125" lon="14.533" intensity="4.5" name="Malinska"/>
  <station source="CECI998a" netid="INTENSITY" code="SI_00356" lat="45.581" lon="14.001" intensity="4.5" name="Materija"/>
  <station source="CECI998a" netid="INTENSITY" code="IT_31945" lat="45.917" lon="13.424" intensity="4.5" name="Medea"/>
  <station source="CECI998a" netid="INTENSITY" code="SI_00363" lat="45.896" lon="13.612" intensity="4.5" name="Miren pri Gorici"/>
  <station source="CECI998a" netid="INTENSITY" code="HR_00138" lat="45.440" lon="13.714" intensity="4.5" name="Momjan"/>
  <station source="CECI998a" netid="INTENSITY" code="AT_00410" lat="46.658" lon="14.174" intensity="4.5" name="Moosburg in Kärnten"/>
  <station source="CECI998a" netid="INTENSITY" code="HR_00140" lat="45.440" lon="16.361" intensity="4.5" name="Mošćenica"/>
  <station source="CECI998a" netid="INTENSITY" code="AT_00430" lat="47.070" lon="14.420" intensity="4.5" name="Neumarkt"/>
  <station source="CECI998a" netid="INTENSITY" code="HR_00145" lat="45.316" lon="13.562" intensity="4.5" name="Novigrad [Cittanova]"/>
  <station source="CECI998a" netid="INTENSITY" code="HR_00032" lat="45.338" lon="14.307" intensity="4.5" name="Opatija [Abbazia]"/>
  <station source="CECI998a" netid="INTENSITY" code="SI_00387" lat="46.407" lon="16.148" intensity="4.5" name="Ormož"/>
  <station source="CECI998a" netid="INTENSITY" code="SI_00389" lat="45.783" lon="14.677" intensity="4.5" name="Ortnek"/>
  <station source="CECI998a" netid="INTENSITY" code="SI_00390" lat="45.529" lon="14.698" intensity="4.5" name="Osilnica"/>
  <station source="CECI998a" netid="INTENSITY" code="SI_00392" lat="45.834" lon="15.222" intensity="4.5" name="Otočec"/>
  <station source="CECI998a" netid="INTENSITY" code="AT_00467" lat="46.830" lon="13.870" intensity="4.5" name="Patergassen"/>
  <station source="CECI998a" netid="INTENSITY" code="IT_21695" lat="46.062" lon="11.238" intensity="4.5" name="Pergine Valsugana"/>
  <station source="CECI998a" netid="INTENSITY" code="SI_00397" lat="46.649" lon="16.067" intensity="4.5" name="Petanjci"/>
  <station source="CECI998a" netid="INTENSITY" code="SI_00402" lat="45.683" lon="14.196" intensity="4.5" name="Pivka"/>
  <station source="CECI998a" netid="INTENSITY" code="SI_00076" lat="45.834" lon="14.256" intensity="4.5" name="Planina"/>
  <station source="CECI998a" netid="INTENSITY" code="SI_00403" lat="45.622" lon="15.112" intensity="4.5" name="Planina"/>
  <station source="CECI998a" netid="INTENSITY" code="SI_00418" lat="45.629" lon="14.025" intensity="4.5" name="Podgrad pri Vremah"/>
  <station source="CECI998a" netid="INTENSITY" code="SI_00432" lat="45.500" lon="13.760" intensity="4.5" name="Pomjan"/>
  <station source="CECI998a" netid="INTENSITY" code="IT_31296" lat="46.506" lon="13.306" intensity="4.5" name="Pontebba"/>
  <station source="CECI998a" netid="INTENSITY" code="SI_00440" lat="45.732" lon="14.188" intensity="4.5" name="Prestranek"/>
  <station source="CECI998a" netid="INTENSITY" code="SI_00441" lat="46.544" lon="14.917" intensity="4.5" name="Prevalje"/>
  <station source="CECI998a" netid="INTENSITY" code="SI_00442" lat="46.420" lon="15.876" intensity="4.5" name="Ptuj"/>
  <station source="CECI998a" netid="INTENSITY" code="SI_00443" lat="46.067" lon="15.182" intensity="4.5" name="Radeče"/>
  <station source="CECI998a" netid="INTENSITY" code="SI_00446" lat="46.004" lon="15.307" intensity="4.5" name="Radna"/>
  <station source="CECI998a" netid="INTENSITY" code="HR_00165" lat="45.080" lon="14.091" intensity="4.5" name="Raša"/>
  <station source="CECI998a" netid="INTENSITY" code="HR_00043" lat="45.327" lon="14.445" intensity="4.5" name="Rijeka [Fiume]"/>
  <station source="CECI998a" netid="INTENSITY" code="IT_20772" lat="46.795" lon="11.667" intensity="4.5" name="Rio di Pusteria"/>
  <station source="CECI998a" netid="INTENSITY" code="HR_00169" lat="45.394" lon="14.051" intensity="4.5" name="Roč"/>
  <station source="CECI998a" netid="INTENSITY" code="SI_00463" lat="46.110" lon="13.675" intensity="4.5" name="Ročinj?"/>
  <station source="CECI998a" netid="INTENSITY" code="IT_31956" lat="45.828" lon="13.506" intensity="4.5" name="Ronchi dei Legionari"/>
  <station source="CECI998a" netid="INTENSITY" code="SI_00467" lat="46.539" lon="15.520" intensity="4.5" name="Ruše"/>
  <station source="CECI998a" netid="INTENSITY" code="IT_31959" lat="45.874" lon="13.484" intensity="4.5" name="Sagrado"/>
  <station source="CECI998a" netid="INTENSITY" code="IT_31520" lat="46.157" lon="13.010" intensity="4.5" name="San Daniele del Friuli"/>
  <station source="CECI998a" netid="INTENSITY" code="IT_31535" lat="45.977" lon="13.399" intensity="4.5" name="San Giovanni al Natisone"/>
  <station source="CECI998a" netid="INTENSITY" code="IT_31987" lat="45.930" lon="13.526" intensity="4.5" name="San Lorenzo Isontino"/>
  <station source="CECI998a" netid="INTENSITY" code="IT_20850" lat="46.558" lon="11.722" intensity="4.5" name="Santa Cristina Valgardena"/>
  <station source="CECI998a" netid="INTENSITY" code="SI_00474" lat="46.256" lon="15.123" intensity="4.5" name="Šempeter v Savinjski dolini"/>
  <station source="CECI998a" netid="INTENSITY" code="SI_00477" lat="45.720" lon="14.039" intensity="4.5" name="Senožeče"/>
  <station source="CECI998a" netid="INTENSITY" code="SI_00491" lat="45.709" lon="13.873" intensity="4.5" name="Sežana"/>
  <station source="CECI998a" netid="INTENSITY" code="SI_00502" lat="46.427" lon="14.084" intensity="4.5" name="Slovenski Javornik"/>
  <station source="CECI998a" netid="INTENSITY" code="SI_00108" lat="45.850" lon="13.850" intensity="4.5" name="Šmarje"/>
  <station source="CECI998a" netid="INTENSITY" code="SI_00515" lat="45.574" lon="14.406" intensity="4.5" name="Snežnik"/>
  <station source="CECI998a" netid="INTENSITY" code="SI_00517" lat="45.762" lon="14.641" intensity="4.5" name="Sodražica"/>
  <station source="CECI998a" netid="INTENSITY" code="HR_00175" lat="45.378" lon="13.927" intensity="4.5" name="Sovinjak"/>
  <station source="CECI998a" netid="INTENSITY" code="AT_00606" lat="46.765" lon="14.822" intensity="4.5" name="St. Andrä im Lavanttal"/>
  <station source="CECI998a" netid="INTENSITY" code="AT_00621" lat="46.547" lon="14.058" intensity="4.5" name="St. Jakob im Rosental"/>
  <station source="CECI998a" netid="INTENSITY" code="IT_30793" lat="45.857" lon="13.321" intensity="4.5" name="Strassoldo"/>
  <station source="CECI998a" netid="INTENSITY" code="SI_00538" lat="45.787" lon="15.079" intensity="4.5" name="Straža"/>
  <station source="CECI998a" netid="INTENSITY" code="SI_00546" lat="46.674" lon="15.597" intensity="4.5" name="Svečina"/>
  <station source="CECI998a" netid="INTENSITY" code="HR_00182" lat="45.089" lon="13.887" intensity="4.5" name="Svetvinčenat"/>
  <station source="CECI998a" netid="INTENSITY" code="HU_00157" lat="46.051" lon="17.793" intensity="4.5" name="Szigetvar"/>
  <station source="CECI998a" netid="INTENSITY" code="AT_00693" lat="46.720" lon="13.290" intensity="4.5" name="Techendorf"/>
  <station source="CECI998a" netid="INTENSITY" code="AT_00700" lat="46.543" lon="13.652" intensity="4.5" name="Thörl-Maglern"/>
  <station source="CECI998a" netid="INTENSITY" code="HR_00183" lat="45.217" lon="13.845" intensity="4.5" name="Tinjan"/>
  <station source="CECI998a" netid="INTENSITY" code="SI_00552" lat="45.691" lon="14.602" intensity="4.5" name="Travnik"/>
  <station source="CECI998a" netid="INTENSITY" code="AT_00711" lat="46.850" lon="14.420" intensity="4.5" name="Treffling"/>
  <station source="CECI998a" netid="INTENSITY" code="SI_00126" lat="46.366" lon="14.313" intensity="4.5" name="Tržič"/>
  <station source="CECI998a" netid="INTENSITY" code="IT_22136" lat="45.782" lon="11.118" intensity="4.5" name="Vallarsa (Raossi)"/>
  <station source="CECI998a" netid="INTENSITY" code="AT_00738" lat="46.614" lon="14.041" intensity="4.5" name="Velden am Wörthersee"/>
  <station source="CECI998a" netid="INTENSITY" code="HR_00057" lat="44.516" lon="14.508" intensity="4.5" name="Veli Lošinj"/>
  <station source="CECI998a" netid="INTENSITY" code="SI_00570" lat="45.855" lon="15.667" intensity="4.5" name="Velika Dolina"/>
  <station source="CECI998a" netid="INTENSITY" code="IT_22171" lat="46.420" lon="11.674" intensity="4.5" name="Vigo di Fassa"/>
  <station source="CECI998a" netid="INTENSITY" code="IT_31871" lat="45.815" lon="13.395" intensity="4.5" name="Villa Vicentina"/>
  <station source="CECI998a" netid="INTENSITY" code="IT_32007" lat="45.863" lon="13.441" intensity="4.5" name="Villesse"/>
  <station source="CECI998a" netid="INTENSITY" code="IT_31872" lat="45.893" lon="13.344" intensity="4.5" name="Visco"/>
  <station source="CECI998a" netid="INTENSITY" code="HR_00193" lat="45.277" lon="13.724" intensity="4.5" name="Višnjan"/>
  <station source="CECI998a" netid="INTENSITY" code="HR_00194" lat="45.331" lon="13.761" intensity="4.5" name="Vižinada [Visinada]"/>
  <station source="CECI998a" netid="INTENSITY" code="HR_00200" lat="45.077" lon="14.675" intensity="4.5" name="Vrbnik"/>
  <station source="CECI998a" netid="INTENSITY" code="HR_00201" lat="45.151" lon="13.611" intensity="4.5" name="Vrsar"/>
  <station source="CECI998a" netid="INTENSITY" code="SI_00598" lat="46.593" lon="15.238" intensity="4.5" name="Vuhred"/>
  <station source="CECI998a" netid="INTENSITY" code="AT_00753" lat="46.500" lon="14.350" intensity="4.5" name="Waidisch"/>
  <station source="CECI998a" netid="INTENSITY" code="AT_00788" lat="46.490" lon="14.240" intensity="4.5" name="Windisch-Bleiberg"/>
  <station source="CECI998a" netid="INTENSITY" code="SI_00601" lat="46.304" lon="13.482" intensity="4.5" name="Žaga"/>
  <station source="CECI998a" netid="INTENSITY" code="HU_00174" lat="46.844" lon="16.844" intensity="4.5" name="Zalaegerszeg"/>
  <station source="CECI998a" netid="INTENSITY" code="SI_00610" lat="46.222" lon="14.163" intensity="4.5" name="Železniki"/>
  <station source="CECI998a" netid="INTENSITY" code="HR_00209" lat="45.143" lon="13.912" intensity="4.5" name="Žminj"/>
  <station source="CECI998a" netid="INTENSITY" code="SI_00621" lat="46.371" lon="15.391" intensity="4.5" name="Zreče"/>
  <station source="CECI998a" netid="INTENSITY" code="RS_00005" lat="45.388" lon="20.394" intensity="4.5" name="Zrenjanin"/>
  <station source="CECI998a" netid="INTENSITY" code="AT_00004" lat="47.544" lon="11.703" intensity="4.0" name="Achental"/>
  <station source="CECI998a" netid="INTENSITY" code="IT_30654" lat="45.872" lon="13.364" intensity="4.0" name="Aiello del Friuli"/>
  <station source="CECI998a" netid="INTENSITY" code="IT_20320" lat="46.676" lon="11.632" intensity="4.0" name="Albes"/>
  <station source="CECI998a" netid="INTENSITY" code="IT_21118" lat="45.976" lon="11.091" intensity="4.0" name="Aldeno"/>
  <station source="CECI998a" netid="INTENSITY" code="AT_00015" lat="46.880" lon="14.470" intensity="4.0" name="Althofen"/>
  <station source="CECI998a" netid="INTENSITY" code="IT_21125" lat="45.917" lon="10.882" intensity="4.0" name="Arco"/>
  <station source="CECI998a" netid="INTENSITY" code="IT_20278" lat="46.643" lon="11.224" intensity="4.0" name="Avelengo"/>
  <station source="CECI998a" netid="INTENSITY" code="AT_00039" lat="47.510" lon="12.120" intensity="4.0" name="Bad Häring"/>
  <station source="CECI998a" netid="INTENSITY" code="AT_00041" lat="47.712" lon="13.620" intensity="4.0" name="Bad Ischl"/>
  <station source="CECI998a" netid="INTENSITY" code="HR_00069" lat="45.039" lon="13.787" intensity="4.0" name="Bale"/>
  <station source="CECI998a" netid="INTENSITY" code="BA_00002" lat="44.774" lon="17.198" intensity="4.0" name="Banja Luka"/>
  <station source="CECI998a" netid="INTENSITY" code="HR_00070" lat="45.065" lon="14.022" intensity="4.0" name="Barban"/>
  <station source="CECI998a" netid="INTENSITY" code="IT_70103" lat="45.681" lon="13.756" intensity="4.0" name="Barcola"/>
  <station source="CECI998a" netid="INTENSITY" code="IT_21154" lat="46.132" lon="11.246" intensity="4.0" name="Baselga di Pinè"/>
  <station source="CECI998a" netid="INTENSITY" code="IT_32071" lat="45.642" lon="13.863" intensity="4.0" name="Basovizza"/>
  <station source="CECI998a" netid="INTENSITY" code="IT_21172" lat="46.166" lon="11.301" intensity="4.0" name="Bedollo"/>
  <station source="CECI998a" netid="INTENSITY" code="BA_00003" lat="44.815" lon="15.872" intensity="4.0" name="Bihać"/>
  <station source="CECI998a" netid="INTENSITY" code="IT_21192" lat="46.031" lon="10.850" intensity="4.0" name="Bleggio Inferiore (Comighello)"/>
  <station source="CECI998a" netid="INTENSITY" code="IT_20302" lat="46.499" lon="11.352" intensity="4.0" name="Bolzano"/>
  <station source="CECI998a" netid="INTENSITY" code="IT_21219" lat="46.052" lon="11.458" intensity="4.0" name="Borgo Valsugana"/>
  <station source="CECI998a" netid="INTENSITY" code="SI_00161" lat="45.486" lon="13.803" intensity="4.0" name="Boršt"/>
  <station source="CECI998a" netid="INTENSITY" code="BA_00006" lat="44.881" lon="16.161" intensity="4.0" name="Bosanska Krupa"/>
  <station source="CECI998a" netid="INTENSITY" code="BA_00007" lat="45.132" lon="17.983" intensity="4.0" name="Bosanski Brod"/>
  <station source="CECI998a" netid="INTENSITY" code="BA_00008" lat="45.049" lon="16.377" intensity="4.0" name="Bosanski Novi"/>
  <station source="CECI998a" netid="INTENSITY" code="IT_20321" lat="46.715" lon="11.657" intensity="4.0" name="Bressanone"/>
  <station source="CECI998a" netid="INTENSITY" code="SI_00171" lat="45.996" lon="15.482" intensity="4.0" name="Brestanica"/>
  <station source="CECI998a" netid="INTENSITY" code="SI_00172" lat="45.716" lon="13.952" intensity="4.0" name="Brestovica pri Povirju"/>
  <station source="CECI998a" netid="INTENSITY" code="HR_00074" lat="45.178" lon="14.234" intensity="4.0" name="Brseč"/>
  <station source="CECI998a" netid="INTENSITY" code="HR_00075" lat="45.379" lon="13.630" intensity="4.0" name="Brtonigla"/>
  <station source="CECI998a" netid="INTENSITY" code="AT_00072" lat="47.286" lon="12.824" intensity="4.0" name="Bruck an der Grossglocknerstrasse"/>
  <station source="CECI998a" netid="INTENSITY" code="AT_00073" lat="47.411" lon="15.269" intensity="4.0" name="Bruck an der Mur"/>
  <station source="CECI998a" netid="INTENSITY" code="SI_00177" lat="45.930" lon="15.319" intensity="4.0" name="Bučka"/>
  <station source="CECI998a" netid="INTENSITY" code="HR_00076" lat="45.411" lon="13.661" intensity="4.0" name="Buje"/>
  <station source="CECI998a" netid="INTENSITY" code="IT_21257" lat="45.994" lon="11.265" intensity="4.0" name="Caldonazzo"/>
  <station source="CECI998a" netid="INTENSITY" code="IT_21260" lat="46.476" lon="11.740" intensity="4.0" name="Campitello di Fassa"/>
  <station source="CECI998a" netid="INTENSITY" code="IT_20372" lat="46.919" lon="11.954" intensity="4.0" name="Campo Tures"/>
  <station source="CECI998a" netid="INTENSITY" code="IT_31694" lat="46.509" lon="13.533" intensity="4.0" name="Camporosso in Valcanale"/>
  <station source="CECI998a" netid="INTENSITY" code="IT_21313" lat="46.063" lon="11.633" intensity="4.0" name="Castello Tesino"/>
  <station source="CECI998a" netid="INTENSITY" code="IT_20389" lat="46.567" lon="11.561" intensity="4.0" name="Castelrotto"/>
  <station source="CECI998a" netid="INTENSITY" code="IT_31697" lat="46.440" lon="13.571" intensity="4.0" name="Cave del Predil"/>
  <station source="CECI998a" netid="INTENSITY" code="IT_21331" lat="45.994" lon="10.972" intensity="4.0" name="Cavedine"/>
  <station source="CECI998a" netid="INTENSITY" code="BA_00010" lat="44.969" lon="15.930" intensity="4.0" name="Cazin"/>
  <station source="CECI998a" netid="INTENSITY" code="SI_00012" lat="46.049" lon="13.793" intensity="4.0" name="Čepovan"/>
  <station source="CECI998a" netid="INTENSITY" code="HR_00081" lat="45.276" lon="14.016" intensity="4.0" name="Cerovlje"/>
  <station source="CECI998a" netid="INTENSITY" code="IT_20410" lat="46.641" lon="11.569" intensity="4.0" name="Chiusa"/>
  <station source="CECI998a" netid="INTENSITY" code="IT_26044" lat="46.447" lon="12.014" intensity="4.0" name="Colle Santa Lucia (Villagrande)"/>
  <station source="CECI998a" netid="INTENSITY" code="IT_21573" lat="46.035" lon="10.892" intensity="4.0" name="Comano"/>
  <station source="CECI998a" netid="INTENSITY" code="IT_26058" lat="46.540" lon="12.138" intensity="4.0" name="Cortina d'Ampezzo"/>
  <station source="CECI998a" netid="INTENSITY" code="SI_00192" lat="45.550" lon="13.883" intensity="4.0" name="Črni Kal"/>
  <station source="CECI998a" netid="INTENSITY" code="SI_00199" lat="45.892" lon="14.705" intensity="4.0" name="Čušperk"/>
  <station source="CECI998a" netid="INTENSITY" code="BA_00011" lat="44.978" lon="17.911" intensity="4.0" name="Derventa"/>
  <station source="CECI998a" netid="INTENSITY" code="AT_00084" lat="46.740" lon="14.620" intensity="4.0" name="Diex"/>
  <station source="CECI998a" netid="INTENSITY" code="IT_20449" lat="46.735" lon="12.224" intensity="4.0" name="Dobbiaco"/>
  <station source="CECI998a" netid="INTENSITY" code="SI_00215" lat="45.599" lon="13.857" intensity="4.0" name="Dolina"/>
  <station source="CECI998a" netid="INTENSITY" code="AT_00086" lat="46.824" lon="12.837" intensity="4.0" name="Dölsach"/>
  <station source="CECI998a" netid="INTENSITY" code="SI_00221" lat="45.889" lon="13.740" intensity="4.0" name="Dornberk"/>
  <station source="CECI998a" netid="INTENSITY" code="SI_00023" lat="46.467" lon="13.954" intensity="4.0" name="Dovje"/>
  <station source="CECI998a" netid="INTENSITY" code="SI_00224" lat="45.633" lon="14.659" intensity="4.0" name="Draga"/>
  <station source="CECI998a" netid="INTENSITY" code="HR_00088" lat="45.334" lon="14.009" intensity="4.0" name="Draguć"/>
  <station source="CECI998a" netid="INTENSITY" code="SI_00229" lat="46.257" lon="13.614" intensity="4.0" name="Drežnica"/>
  <station source="CECI998a" netid="INTENSITY" code="IT_32013" lat="45.773" lon="13.604" intensity="4.0" name="Duino"/>
  <station source="CECI998a" netid="INTENSITY" code="SI_00230" lat="45.756" lon="13.837" intensity="4.0" name="Dutovlje"/>
  <station source="CECI998a" netid="INTENSITY" code="AT_00095" lat="47.813" lon="13.771" intensity="4.0" name="Ebensee"/>
  <station source="CECI998a" netid="INTENSITY" code="AT_00109" lat="46.670" lon="14.950" intensity="4.0" name="Ettendorf"/>
  <station source="CECI998a" netid="INTENSITY" code="IT_21429" lat="46.181" lon="11.238" intensity="4.0" name="Faver"/>
  <station source="CECI998a" netid="INTENSITY" code="HR_00091" lat="44.928" lon="13.809" intensity="4.0" name="Fažana"/>
  <station source="CECI998a" netid="INTENSITY" code="AT_00117" lat="46.724" lon="14.094" intensity="4.0" name="Feldkirchen in Kärnten"/>
  <station source="CECI998a" netid="INTENSITY" code="AT_00123" lat="46.940" lon="13.130" intensity="4.0" name="Flattach"/>
  <station source="CECI998a" netid="INTENSITY" code="AT_00127" lat="47.209" lon="14.679" intensity="4.0" name="Fohnsdorf"/>
  <station source="CECI998a" netid="INTENSITY" code="AT_00134" lat="47.270" lon="15.325" intensity="4.0" name="Frohnleiten"/>
  <station source="CECI998a" netid="INTENSITY" code="IT_20476" lat="46.642" lon="11.679" intensity="4.0" name="Funes (San Pietro)"/>
  <station source="CECI998a" netid="INTENSITY" code="IT_22044" lat="46.104" lon="11.110" intensity="4.0" name="Gardolo"/>
  <station source="CECI998a" netid="INTENSITY" code="AT_00153" lat="46.880" lon="15.910" intensity="4.0" name="Gleichenberg"/>
  <station source="CECI998a" netid="INTENSITY" code="AT_00155" lat="47.100" lon="15.710" intensity="4.0" name="Gleisdorf"/>
  <station source="CECI998a" netid="INTENSITY" code="AT_00157" lat="46.874" lon="14.119" intensity="4.0" name="Glödnitz"/>
  <station source="CECI998a" netid="INTENSITY" code="HR_00095" lat="44.550" lon="15.379" intensity="4.0" name="Gospić"/>
  <station source="CECI998a" netid="INTENSITY" code="AT_00163" lat="46.773" lon="14.486" intensity="4.0" name="Gösseling"/>
  <station source="CECI998a" netid="INTENSITY" code="HR_00096" lat="45.221" lon="14.015" intensity="4.0" name="Gračišće"/>
  <station source="CECI998a" netid="INTENSITY" code="SI_00243" lat="45.614" lon="15.249" intensity="4.0" name="Gradac v Beli krajini"/>
  <station source="CECI998a" netid="INTENSITY" code="IT_31942" lat="45.679" lon="13.386" intensity="4.0" name="Grado"/>
  <station source="CECI998a" netid="INTENSITY" code="IT_32072" lat="45.708" lon="13.717" intensity="4.0" name="Grignano"/>
  <station source="CECI998a" netid="INTENSITY" code="IT_21501" lat="46.016" lon="11.634" intensity="4.0" name="Grigno"/>
  <station source="CECI998a" netid="INTENSITY" code="AT_00180" lat="47.446" lon="13.902" intensity="4.0" name="Gröbming"/>
  <station source="CECI998a" netid="INTENSITY" code="HR_00099" lat="45.379" lon="13.727" intensity="4.0" name="Grožnjan"/>
  <station source="CECI998a" netid="INTENSITY" code="AT_00194" lat="48.111" lon="14.568" intensity="4.0" name="Haag"/>
  <station source="CECI998a" netid="INTENSITY" code="AT_00201" lat="47.282" lon="11.507" intensity="4.0" name="Hall in Tirol"/>
  <station source="CECI998a" netid="INTENSITY" code="AT_00202" lat="47.683" lon="13.100" intensity="4.0" name="Hallein"/>
  <station source="CECI998a" netid="INTENSITY" code="AT_00207" lat="46.980" lon="16.000" intensity="4.0" name="Hatzendorf"/>
  <station source="CECI998a" netid="INTENSITY" code="AT_00209" lat="46.620" lon="13.740" intensity="4.0" name="Heiligen Geist"/>
  <station source="CECI998a" netid="INTENSITY" code="AT_00240" lat="46.940" lon="14.548" intensity="4.0" name="Hüttenberg"/>
  <station source="CECI998a" netid="INTENSITY" code="HR_00103" lat="45.313" lon="14.290" intensity="4.0" name="Ičići"/>
  <station source="CECI998a" netid="INTENSITY" code="AT_00248" lat="46.760" lon="13.030" intensity="4.0" name="Irschen"/>
  <station source="CECI998a" netid="INTENSITY" code="IT_31940" lat="45.703" lon="13.423" intensity="4.0" name="Isola di Barbana [santuario]"/>
  <station source="CECI998a" netid="INTENSITY" code="SI_00265" lat="45.539" lon="13.660" intensity="4.0" name="Izola [Isola]"/>
  <station source="CECI998a" netid="INTENSITY" code="HR_00106" lat="45.022" lon="13.883" intensity="4.0" name="Juršići"/>
  <station source="CECI998a" netid="INTENSITY" code="AT_00264" lat="46.880" lon="14.920" intensity="4.0" name="Kamp"/>
  <station source="CECI998a" netid="INTENSITY" code="HU_00093" lat="46.357" lon="17.791" intensity="4.0" name="Kaposvar"/>
  <station source="CECI998a" netid="INTENSITY" code="HR_00109" lat="45.373" lon="14.348" intensity="4.0" name="Kastav"/>
  <station source="CECI998a" netid="INTENSITY" code="AT_00282" lat="46.931" lon="15.662" intensity="4.0" name="Kirchbach in der Steiermark"/>
  <station source="CECI998a" netid="INTENSITY" code="AT_00290" lat="46.770" lon="13.340" intensity="4.0" name="Kleblach"/>
  <station source="CECI998a" netid="INTENSITY" code="AT_00295" lat="47.150" lon="14.850" intensity="4.0" name="Klein-Lobming"/>
  <station source="CECI998a" netid="INTENSITY" code="SI_00281" lat="45.575" lon="14.804" intensity="4.0" name="Kočevska Reka"/>
  <station source="CECI998a" netid="INTENSITY" code="SI_00044" lat="45.548" lon="13.730" intensity="4.0" name="Koper [Capodistria]"/>
  <station source="CECI998a" netid="INTENSITY" code="AT_00308" lat="46.675" lon="12.998" intensity="4.0" name="Kötschach"/>
  <station source="CECI998a" netid="INTENSITY" code="SI_00049" lat="46.486" lon="13.792" intensity="4.0" name="Kranjska Gora"/>
  <station source="CECI998a" netid="INTENSITY" code="HR_00120" lat="44.972" lon="14.021" intensity="4.0" name="Krnica"/>
  <station source="CECI998a" netid="INTENSITY" code="HR_00122" lat="45.172" lon="14.142" intensity="4.0" name="Kršan"/>
  <station source="CECI998a" netid="INTENSITY" code="AT_00317" lat="46.625" lon="14.214" intensity="4.0" name="Krumpendorf am Wörther See"/>
  <station source="CECI998a" netid="INTENSITY" code="SI_00308" lat="45.619" lon="13.914" intensity="4.0" name="Krvavi Potok"/>
  <station source="CECI998a" netid="INTENSITY" code="IT_21207" lat="46.028" lon="10.821" intensity="4.0" name="Larido Marazzone"/>
  <station source="CECI998a" netid="INTENSITY" code="IT_21549" lat="45.937" lon="11.275" intensity="4.0" name="Lavarone (Gionghi)"/>
  <station source="CECI998a" netid="INTENSITY" code="AT_00341" lat="46.780" lon="15.540" intensity="4.0" name="Leibnitz"/>
  <station source="CECI998a" netid="INTENSITY" code="AT_00342" lat="47.297" lon="13.051" intensity="4.0" name="Lend"/>
  <station source="CECI998a" netid="INTENSITY" code="AT_00344" lat="47.381" lon="15.095" intensity="4.0" name="Leoben"/>
  <station source="CECI998a" netid="INTENSITY" code="AT_00346" lat="47.890" lon="14.230" intensity="4.0" name="Leonstein"/>
  <station source="CECI998a" netid="INTENSITY" code="SI_00316" lat="45.938" lon="15.477" intensity="4.0" name="Leskovec pri Krškem"/>
  <station source="CECI998a" netid="INTENSITY" code="IT_21562" lat="46.011" lon="11.303" intensity="4.0" name="Levico Terme"/>
  <station source="CECI998a" netid="INTENSITY" code="AT_00357" lat="46.990" lon="15.210" intensity="4.0" name="Ligist"/>
  <station source="CECI998a" netid="INTENSITY" code="AL_00080" lat="46.610" lon="14.520" intensity="4.0" name="Lind"/>
  <station source="CECI998a" netid="INTENSITY" code="SI_00321" lat="46.203" lon="13.604" intensity="4.0" name="Livek"/>
  <station source="CECI998a" netid="INTENSITY" code="HR_00129" lat="45.292" lon="14.276" intensity="4.0" name="Lovran"/>
  <station source="CECI998a" netid="INTENSITY" code="HR_00131" lat="45.353" lon="14.111" intensity="4.0" name="Lupoglav"/>
  <station source="CECI998a" netid="INTENSITY" code="AT_00371" lat="46.990" lon="13.170" intensity="4.0" name="Mallnitz"/>
  <station source="CECI998a" netid="INTENSITY" code="IT_20591" lat="46.698" lon="11.933" intensity="4.0" name="Marebbe (San Vigilio)"/>
  <station source="CECI998a" netid="INTENSITY" code="IT_31944" lat="45.915" lon="13.460" intensity="4.0" name="Mariano del Friuli"/>
  <station source="CECI998a" netid="INTENSITY" code="AT_00378" lat="47.151" lon="13.746" intensity="4.0" name="Mariapfarr"/>
  <station source="CECI998a" netid="INTENSITY" code="AT_00382" lat="47.000" lon="12.540" intensity="4.0" name="Matrei in Osttirol"/>
  <station source="CECI998a" netid="INTENSITY" code="HR_00135" lat="45.368" lon="14.330" intensity="4.0" name="Matulji"/>
  <station source="CECI998a" netid="INTENSITY" code="HR_00136" lat="44.822" lon="13.941" intensity="4.0" name="Medulin"/>
  <station source="CECI998a" netid="INTENSITY" code="IT_20611" lat="46.671" lon="11.162" intensity="4.0" name="Merano"/>
  <station source="CECI998a" netid="INTENSITY" code="SI_00361" lat="45.651" lon="15.317" intensity="4.0" name="Metlika"/>
  <station source="CECI998a" netid="INTENSITY" code="AT_00393" lat="46.981" lon="14.218" intensity="4.0" name="Metnitz"/>
  <station source="CECI998a" netid="INTENSITY" code="AT_00396" lat="46.804" lon="13.572" intensity="4.0" name="Millstatt"/>
  <station source="CECI998a" netid="INTENSITY" code="SI_00364" lat="45.954" lon="15.067" intensity="4.0" name="Mirna"/>
  <station source="CECI998a" netid="INTENSITY" code="AT_00405" lat="47.320" lon="15.370" intensity="4.0" name="Mixnitz"/>
  <station source="CECI998a" netid="INTENSITY" code="IT_21605" lat="46.376" lon="11.659" intensity="4.0" name="Moena"/>
  <station source="CECI998a" netid="INTENSITY" code="IT_21311" lat="46.272" lon="11.418" intensity="4.0" name="Molina"/>
  <station source="CECI998a" netid="INTENSITY" code="HU_00115" lat="46.388" lon="16.832" intensity="4.0" name="Molnari"/>
  <station source="CECI998a" netid="INTENSITY" code="IT_31949" lat="45.805" lon="13.529" intensity="4.0" name="Monfalcone"/>
  <station source="CECI998a" netid="INTENSITY" code="SI_00066" lat="45.586" lon="14.933" intensity="4.0" name="Mozelj"/>
  <station source="CECI998a" netid="INTENSITY" code="HR_00144" lat="45.401" lon="14.313" intensity="4.0" name="Mučići"/>
  <station source="CECI998a" netid="INTENSITY" code="IT_32032" lat="45.599" lon="13.768" intensity="4.0" name="Muggia"/>
  <station source="CECI998a" netid="INTENSITY" code="AT_00413" lat="47.100" lon="13.500" intensity="4.0" name="Muhr"/>
  <station source="CECI998a" netid="INTENSITY" code="AT_00414" lat="48.070" lon="13.180" intensity="4.0" name="Munderfing"/>
  <station source="CECI998a" netid="INTENSITY" code="IT_21636" lat="45.877" lon="10.892" intensity="4.0" name="Nago"/>
  <station source="CECI998a" netid="INTENSITY" code="HU_00121" lat="46.459" lon="16.990" intensity="4.0" name="Nagykanizsa"/>
  <station source="CECI998a" netid="INTENSITY" code="IT_21637" lat="46.314" lon="11.048" intensity="4.0" name="Nanno"/>
  <station source="CECI998a" netid="INTENSITY" code="IT_20647" lat="46.649" lon="11.004" intensity="4.0" name="Naturno"/>
  <station source="CECI998a" netid="INTENSITY" code="IT_20655" lat="46.769" lon="11.666" intensity="4.0" name="Naz-Sciaves (Sciaves)"/>
  <station source="CECI998a" netid="INTENSITY" code="SI_00379" lat="45.558" lon="15.049" intensity="4.0" name="Nemška Loka"/>
  <station source="CECI998a" netid="INTENSITY" code="AT_00424" lat="47.180" lon="16.100" intensity="4.0" name="Neudau"/>
  <station source="CECI998a" netid="INTENSITY" code="SI_00383" lat="45.773" lon="14.511" intensity="4.0" name="Nova vas (Bloke)"/>
  <station source="CECI998a" netid="INTENSITY" code="AT_00443" lat="46.748" lon="12.971" intensity="4.0" name="Oberdrauburg"/>
  <station source="CECI998a" netid="INTENSITY" code="AT_00453" lat="46.930" lon="13.200" intensity="4.0" name="Obervellach"/>
  <station source="CECI998a" netid="INTENSITY" code="AT_00457" lat="47.460" lon="13.992" intensity="4.0" name="Öblarn"/>
  <station source="CECI998a" netid="INTENSITY" code="HR_00033" lat="45.381" lon="13.824" intensity="4.0" name="Oprtalj [Portole]"/>
  <station source="CECI998a" netid="INTENSITY" code="HR_00034" lat="44.694" lon="14.398" intensity="4.0" name="Osor [Ossero]"/>
  <station source="CECI998a" netid="INTENSITY" code="SI_00393" lat="46.287" lon="14.260" intensity="4.0" name="Ovsiše"/>
  <station source="CECI998a" netid="INTENSITY" code="IT_21632" lat="45.877" lon="10.936" intensity="4.0" name="Pannone"/>
  <station source="CECI998a" netid="INTENSITY" code="IT_21676" lat="46.363" lon="10.674" intensity="4.0" name="Peio"/>
  <station source="CECI998a" netid="INTENSITY" code="AT_00480" lat="46.850" lon="14.290" intensity="4.0" name="Pisweg"/>
  <station source="CECI998a" netid="INTENSITY" code="SI_00409" lat="46.042" lon="13.591" intensity="4.0" name="Plave"/>
  <station source="CECI998a" netid="INTENSITY" code="SI_00410" lat="45.864" lon="15.471" intensity="4.0" name="Podbočje"/>
  <station source="CECI998a" netid="INTENSITY" code="AT_00484" lat="47.220" lon="14.600" intensity="4.0" name="Pöllau"/>
  <station source="CECI998a" netid="INTENSITY" code="AT_00485" lat="47.221" lon="14.582" intensity="4.0" name="Pöls"/>
  <station source="CECI998a" netid="INTENSITY" code="HR_00157" lat="44.994" lon="13.704" intensity="4.0" name="Porer"/>
  <station source="CECI998a" netid="INTENSITY" code="IT_72350" lat="46.066" lon="11.154" intensity="4.0" name="Povo"/>
  <station source="CECI998a" netid="INTENSITY" code="IT_21736" lat="46.312" lon="11.602" intensity="4.0" name="Predazzo"/>
  <station source="CECI998a" netid="INTENSITY" code="AT_00493" lat="46.940" lon="14.925" intensity="4.0" name="Preitenegg"/>
  <station source="CECI998a" netid="INTENSITY" code="SI_00438" lat="45.605" lon="14.183" intensity="4.0" name="Prem"/>
  <station source="CECI998a" netid="INTENSITY" code="BA_00013" lat="44.974" lon="16.711" intensity="4.0" name="Prijedor"/>
  <station source="CECI998a" netid="INTENSITY" code="BA_00014" lat="44.868" lon="17.672" intensity="4.0" name="Prnjavor"/>
  <station source="CECI998a" netid="INTENSITY" code="HR_00041" lat="44.870" lon="13.842" intensity="4.0" name="Pula [Pola]"/>
  <station source="CECI998a" netid="INTENSITY" code="HR_00162" lat="45.022" lon="14.628" intensity="4.0" name="Punat"/>
  <station source="CECI998a" netid="INTENSITY" code="AT_00503" lat="47.310" lon="14.380" intensity="4.0" name="Pusterwald"/>
  <station source="CECI998a" netid="INTENSITY" code="HR_00164" lat="45.080" lon="14.164" intensity="4.0" name="Rabac"/>
  <station source="CECI998a" netid="INTENSITY" code="IT_21749" lat="46.401" lon="10.846" intensity="4.0" name="Rabbi (San Bernardo)"/>
  <station source="CECI998a" netid="INTENSITY" code="SI_00450" lat="45.929" lon="15.387" intensity="4.0" name="Raka"/>
  <station source="CECI998a" netid="INTENSITY" code="SI_00457" lat="45.739" lon="14.728" intensity="4.0" name="Ribnica [Reifnitz]"/>
  <station source="CECI998a" netid="INTENSITY" code="AT_00531" lat="47.000" lon="15.930" intensity="4.0" name="Riegersburg"/>
  <station source="CECI998a" netid="INTENSITY" code="IT_21778" lat="45.887" lon="10.844" intensity="4.0" name="Riva del Garda"/>
  <station source="CECI998a" netid="INTENSITY" code="IT_31953" lat="45.890" lon="13.442" intensity="4.0" name="Romans d'Isonzo"/>
  <station source="CECI998a" netid="INTENSITY" code="HR_00044" lat="45.081" lon="13.643" intensity="4.0" name="Rovinj"/>
  <station source="CECI998a" netid="INTENSITY" code="SI_00466" lat="45.986" lon="14.183" intensity="4.0" name="Rovte"/>
  <station source="CECI998a" netid="INTENSITY" code="IT_70041" lat="45.884" lon="11.023" intensity="4.0" name="Sacco"/>
  <station source="CECI998a" netid="INTENSITY" code="AT_00547" lat="46.829" lon="13.352" intensity="4.0" name="Sachsenburg"/>
  <station source="CECI998a" netid="INTENSITY" code="IT_20791" lat="46.732" lon="12.282" intensity="4.0" name="San Candido"/>
  <station source="CECI998a" netid="INTENSITY" code="IT_20802" lat="46.811" lon="11.246" intensity="4.0" name="San Leonardo in Passiria"/>
  <station source="CECI998a" netid="INTENSITY" code="IT_21865" lat="46.194" lon="11.135" intensity="4.0" name="San Michele all'Adige"/>
  <station source="CECI998a" netid="INTENSITY" code="IT_20847" lat="46.586" lon="11.086" intensity="4.0" name="San Pancrazio"/>
  <station source="CECI998a" netid="INTENSITY" code="BA_00001" lat="43.851" lon="18.429" intensity="4.0" name="Sarajevo"/>
  <station source="CECI998a" netid="INTENSITY" code="IT_20866" lat="46.642" lon="11.357" intensity="4.0" name="Sarentino"/>
  <station source="CECI998a" netid="INTENSITY" code="HR_00174" lat="45.491" lon="13.509" intensity="4.0" name="Savudrija"/>
  <station source="CECI998a" netid="INTENSITY" code="AT_00558" lat="47.392" lon="13.687" intensity="4.0" name="Schladming"/>
  <station source="CECI998a" netid="INTENSITY" code="SI_00470" lat="46.254" lon="13.443" intensity="4.0" name="Sedlo"/>
  <station source="CECI998a" netid="INTENSITY" code="SI_00471" lat="45.655" lon="15.183" intensity="4.0" name="Semič"/>
  <station source="CECI998a" netid="INTENSITY" code="IT_20906" lat="46.700" lon="12.352" intensity="4.0" name="Sesto"/>
  <station source="CECI998a" netid="INTENSITY" code="IT_20910" lat="46.628" lon="10.774" intensity="4.0" name="Silandro"/>
  <station source="CECI998a" netid="INTENSITY" code="AT_00586" lat="46.747" lon="12.418" intensity="4.0" name="Sillian"/>
  <station source="CECI998a" netid="INTENSITY" code="AT_00588" lat="47.100" lon="15.830" intensity="4.0" name="Sinabelkirchen"/>
  <station source="CECI998a" netid="INTENSITY" code="SI_00506" lat="45.885" lon="15.249" intensity="4.0" name="Šmarjeta"/>
  <station source="CECI998a" netid="INTENSITY" code="AT_00598" lat="46.764" lon="14.276" intensity="4.0" name="Sörg"/>
  <station source="CECI998a" netid="INTENSITY" code="AT_00602" lat="46.797" lon="13.498" intensity="4.0" name="Spittal an der Drau"/>
  <station source="CECI998a" netid="INTENSITY" code="IT_21917" lat="46.218" lon="11.049" intensity="4.0" name="Spormaggiore"/>
  <station source="CECI998a" netid="INTENSITY" code="AT_00616" lat="46.720" lon="14.930" intensity="4.0" name="St. Georgen im Lavanttal"/>
  <station source="CECI998a" netid="INTENSITY" code="AT_00622" lat="46.917" lon="12.331" intensity="4.0" name="St. Jakob in Defereggen"/>
  <station source="CECI998a" netid="INTENSITY" code="AT_00625" lat="46.900" lon="12.630" intensity="4.0" name="St. Johann im Walde"/>
  <station source="CECI998a" netid="INTENSITY" code="AT_00632" lat="46.542" lon="14.421" intensity="4.0" name="St. Margareten im Rosental"/>
  <station source="CECI998a" netid="INTENSITY" code="AT_00634" lat="47.100" lon="13.670" intensity="4.0" name="St. Martin im Lungau"/>
  <station source="CECI998a" netid="INTENSITY" code="AT_00638" lat="46.701" lon="14.869" intensity="4.0" name="St. Paul im Lavanttal"/>
  <station source="CECI998a" netid="INTENSITY" code="AT_00646" lat="46.970" lon="14.360" intensity="4.0" name="St. Salvator"/>
  <station source="CECI998a" netid="INTENSITY" code="AT_00647" lat="46.617" lon="13.517" intensity="4.0" name="St. Stefan an der Gail"/>
  <station source="CECI998a" netid="INTENSITY" code="AT_00649" lat="46.752" lon="14.109" intensity="4.0" name="St. Ulrich bei Feldkirchen"/>
  <station source="CECI998a" netid="INTENSITY" code="AT_00650" lat="46.768" lon="14.359" intensity="4.0" name="St. Veit an der Glan"/>
  <station source="CECI998a" netid="INTENSITY" code="AT_00655" lat="46.894" lon="15.264" intensity="4.0" name="Stainz"/>
  <station source="CECI998a" netid="INTENSITY" code="AT_00664" lat="46.758" lon="13.250" intensity="4.0" name="Steinfeld an der Drau"/>
  <station source="CECI998a" netid="INTENSITY" code="AT_00673" lat="46.730" lon="13.530" intensity="4.0" name="Stockenboi"/>
  <station source="CECI998a" netid="INTENSITY" code="IT_21929" lat="45.849" lon="10.580" intensity="4.0" name="Storo"/>
  <station source="CECI998a" netid="INTENSITY" code="AT_00677" lat="46.810" lon="15.870" intensity="4.0" name="Straden"/>
  <station source="CECI998a" netid="INTENSITY" code="AT_00679" lat="46.895" lon="14.329" intensity="4.0" name="Strassburg-Stadt"/>
  <station source="CECI998a" netid="INTENSITY" code="IT_21931" lat="46.066" lon="11.524" intensity="4.0" name="Strigno"/>
  <station source="CECI998a" netid="INTENSITY" code="AT_00683" lat="47.240" lon="15.800" intensity="4.0" name="Stubenberg"/>
  <station source="CECI998a" netid="INTENSITY" code="HR_00179" lat="44.511" lon="14.312" intensity="4.0" name="Susak"/>
  <station source="CECI998a" netid="INTENSITY" code="SI_00543" lat="46.261" lon="15.681" intensity="4.0" name="Sv. Florijan"/>
  <station source="CECI998a" netid="INTENSITY" code="HR_00180" lat="45.176" lon="13.748" intensity="4.0" name="Sv. Lovreč Pazenatički"/>
  <station source="CECI998a" netid="INTENSITY" code="HR_00181" lat="45.097" lon="13.638" intensity="4.0" name="Sv. Prelog"/>
  <station source="CECI998a" netid="INTENSITY" code="AT_00687" lat="47.128" lon="13.810" intensity="4.0" name="Tamsweg"/>
  <station source="CECI998a" netid="INTENSITY" code="AT_00692" lat="47.290" lon="12.960" intensity="4.0" name="Taxenbach"/>
  <station source="CECI998a" netid="INTENSITY" code="IT_21947" lat="46.071" lon="11.479" intensity="4.0" name="Telve"/>
  <station source="CECI998a" netid="INTENSITY" code="SI_00548" lat="46.344" lon="15.477" intensity="4.0" name="Tepanje"/>
  <station source="CECI998a" netid="INTENSITY" code="IT_21969" lat="46.098" lon="11.045" intensity="4.0" name="Terlago"/>
  <station source="CECI998a" netid="INTENSITY" code="IT_21679" lat="46.316" lon="10.767" intensity="4.0" name="Termenago"/>
  <station source="CECI998a" netid="INTENSITY" code="IT_21979" lat="45.878" lon="11.152" intensity="4.0" name="Terragnolo (Piazza)"/>
  <station source="CECI998a" netid="INTENSITY" code="BA_00016" lat="44.614" lon="17.992" intensity="4.0" name="Tešanj"/>
  <station source="CECI998a" netid="INTENSITY" code="IT_22003" lat="46.291" lon="11.509" intensity="4.0" name="Tesero"/>
  <station source="CECI998a" netid="INTENSITY" code="IT_22008" lat="46.035" lon="10.725" intensity="4.0" name="Tione di Trento"/>
  <station source="CECI998a" netid="INTENSITY" code="IT_22022" lat="46.072" lon="11.450" intensity="4.0" name="Torcegno"/>
  <station source="CECI998a" netid="INTENSITY" code="IT_21770" lat="46.437" lon="11.053" intensity="4.0" name="Tregiovo"/>
  <station source="CECI998a" netid="INTENSITY" code="IT_22075" lat="46.068" lon="11.122" intensity="4.0" name="Trento"/>
  <station source="CECI998a" netid="INTENSITY" code="AT_00716" lat="46.700" lon="14.580" intensity="4.0" name="Trixen"/>
  <station source="CECI998a" netid="INTENSITY" code="AT_00722" lat="47.190" lon="13.600" intensity="4.0" name="Tweng"/>
  <station source="CECI998a" netid="INTENSITY" code="HR_00055" lat="45.434" lon="13.517" intensity="4.0" name="Umag [Umago]"/>
  <station source="CECI998a" netid="INTENSITY" code="IT_22110" lat="46.249" lon="11.343" intensity="4.0" name="Valfloriana (Casatta)"/>
  <station source="CECI998a" netid="INTENSITY" code="IT_21055" lat="46.842" lon="11.728" intensity="4.0" name="Vallarga"/>
  <station source="CECI998a" netid="INTENSITY" code="HR_00190" lat="45.301" lon="14.202" intensity="4.0" name="Vela Učka"/>
  <station source="CECI998a" netid="INTENSITY" code="SI_00575" lat="45.810" lon="15.266" intensity="4.0" name="Velike Brusnice"/>
  <station source="CECI998a" netid="INTENSITY" code="IT_22158" lat="46.298" lon="10.693" intensity="4.0" name="Vermiglio (Fraviano)"/>
  <station source="CECI998a" netid="INTENSITY" code="IT_22166" lat="46.078" lon="11.000" intensity="4.0" name="Vezzano"/>
  <station source="CECI998a" netid="INTENSITY" code="SI_00581" lat="45.922" lon="15.373" intensity="4.0" name="Videm"/>
  <station source="CECI998a" netid="INTENSITY" code="IT_22176" lat="46.004" lon="11.198" intensity="4.0" name="Vigolo Vattaro"/>
  <station source="CECI998a" netid="INTENSITY" code="IT_32091" lat="45.687" lon="13.789" intensity="4.0" name="Villa Opicina"/>
  <station source="CECI998a" netid="INTENSITY" code="SI_00582" lat="45.461" lon="15.254" intensity="4.0" name="Vinica"/>
  <station source="CECI998a" netid="INTENSITY" code="IT_21085" lat="46.895" lon="11.431" intensity="4.0" name="Vipiteno"/>
  <station source="CECI998a" netid="INTENSITY" code="HR_00196" lat="43.757" lon="15.779" intensity="4.0" name="Vodice"/>
  <station source="CECI998a" netid="INTENSITY" code="AT_00744" lat="47.050" lon="15.150" intensity="4.0" name="Voitsberg"/>
  <station source="CECI998a" netid="INTENSITY" code="HR_00198" lat="45.348" lon="14.320" intensity="4.0" name="Volosko [Volosca]"/>
  <station source="CECI998a" netid="INTENSITY" code="HR_00199" lat="44.836" lon="14.413" intensity="4.0" name="Vrana"/>
  <station source="CECI998a" netid="INTENSITY" code="AT_00751" lat="47.320" lon="16.030" intensity="4.0" name="Wagendorf"/>
  <station source="CECI998a" netid="INTENSITY" code="AT_00763" lat="46.618" lon="13.305" intensity="4.0" name="Watschig"/>
  <station source="CECI998a" netid="INTENSITY" code="AT_00768" lat="46.680" lon="13.250" intensity="4.0" name="Weissbriach"/>
  <station source="CECI998a" netid="INTENSITY" code="AT_00775" lat="47.480" lon="13.190" intensity="4.0" name="Werfen"/>
  <station source="CECI998a" netid="INTENSITY" code="AT_00780" lat="46.720" lon="15.280" intensity="4.0" name="Wies"/>
  <station source="CECI998a" netid="INTENSITY" code="AT_00782" lat="46.870" lon="14.540" intensity="4.0" name="Wieting"/>
  <station source="CECI998a" netid="INTENSITY" code="AT_00786" lat="46.870" lon="15.500" intensity="4.0" name="Wildon"/>
  <station source="CECI998a" netid="INTENSITY" code="AT_00790" lat="46.690" lon="13.840" intensity="4.0" name="Winklern"/>
  <station source="CECI998a" netid="INTENSITY" code="AT_00791" lat="46.839" lon="14.846" intensity="4.0" name="Wolfsberg"/>
  <station source="CECI998a" netid="INTENSITY" code="HR_00064" lat="44.114" lon="15.227" intensity="4.0" name="Zadar [Zara]"/>
  <station source="CECI998a" netid="INTENSITY" code="SI_00602" lat="45.641" lon="14.226" intensity="4.0" name="Zagorje"/>
  <station source="CECI998a" netid="INTENSITY" code="AT_00798" lat="47.150" lon="13.510" intensity="4.0" name="Zederhaus"/>
  <station source="CECI998a" netid="INTENSITY" code="AT_00806" lat="46.870" lon="14.230" intensity="4.0" name="Zweinitz"/>
  <station source="CECI998a" netid="INTENSITY" code="AT_00222" lat="47.787" lon="16.454" intensity="3.5" name="Hirm"/>
  <station source="CECI998a" netid="INTENSITY" code="AT_00007" lat="47.572" lon="14.463" intensity="3.0" name="Admont"/>
  <station source="CECI998a" netid="INTENSITY" code="AT_00008" lat="47.543" lon="15.238" intensity="3.0" name="Aflenz Kurort"/>
  <station source="CECI998a" netid="INTENSITY" code="AT_00021" lat="48.370" lon="13.580" intensity="3.0" name="Andorf"/>
  <station source="CECI998a" netid="INTENSITY" code="AT_00037" lat="47.609" lon="13.783" intensity="3.0" name="Bad Aussee"/>
  <station source="CECI998a" netid="INTENSITY" code="AT_00045" lat="48.006" lon="16.232" intensity="3.0" name="Baden bei Wien"/>
  <station source="CECI998a" netid="INTENSITY" code="BA_00004" lat="45.188" lon="16.801" intensity="3.0" name="Bosanska Dubica"/>
  <station source="CECI998a" netid="INTENSITY" code="BA_00005" lat="45.147" lon="17.248" intensity="3.0" name="Bosanska Gradiška"/>
  <station source="CECI998a" netid="INTENSITY" code="BA_00009" lat="45.063" lon="18.472" intensity="3.0" name="Bosanski Šamac"/>
  <station source="CECI998a" netid="INTENSITY" code="HR_00073" lat="43.916" lon="15.850" intensity="3.0" name="Bribir"/>
  <station source="CECI998a" netid="INTENSITY" code="AT_00076" lat="48.690" lon="15.520" intensity="3.0" name="Brunn an der Wild"/>
  <station source="CECI998a" netid="INTENSITY" code="CZ_00003" lat="48.974" lon="14.474" intensity="3.0" name="České Budějovice"/>
  <station source="CECI998a" netid="INTENSITY" code="IT_21394" lat="45.889" lon="10.600" intensity="3.0" name="Condino"/>
  <station source="CECI998a" netid="INTENSITY" code="IT_20424" lat="46.313" lon="11.224" intensity="3.0" name="Cortaccia sulla Strada del Vino"/>
  <station source="CECI998a" netid="INTENSITY" code="HU_00056" lat="47.401" lon="16.707" intensity="3.0" name="Csepreg"/>
  <station source="CECI998a" netid="INTENSITY" code="IT_21405" lat="46.274" lon="11.050" intensity="3.0" name="Denno"/>
  <station source="CECI998a" netid="INTENSITY" code="AT_00080" lat="47.200" lon="15.340" intensity="3.0" name="Deutsch-Feistritz"/>
  <station source="CECI998a" netid="INTENSITY" code="IT_21409" lat="46.389" lon="11.137" intensity="3.0" name="Don"/>
  <station source="CECI998a" netid="INTENSITY" code="IT_21415" lat="45.961" lon="10.911" intensity="3.0" name="Dro"/>
  <station source="CECI998a" netid="INTENSITY" code="AT_00103" lat="47.542" lon="14.887" intensity="3.0" name="Eisenerz"/>
  <station source="CECI998a" netid="INTENSITY" code="IT_21426" lat="46.178" lon="11.069" intensity="3.0" name="Fai della Paganella"/>
  <station source="CECI998a" netid="INTENSITY" code="AT_00131" lat="47.440" lon="16.060" intensity="3.0" name="Friedberg"/>
  <station source="CECI998a" netid="INTENSITY" code="AT_00170" lat="48.430" lon="15.760" intensity="3.0" name="Grafenegg"/>
  <station source="CECI998a" netid="INTENSITY" code="AT_00193" lat="47.876" lon="15.892" intensity="3.0" name="Gutenstein"/>
  <station source="CECI998a" netid="INTENSITY" code="AT_00195" lat="48.710" lon="16.140" intensity="3.0" name="Hadres"/>
  <station source="CECI998a" netid="INTENSITY" code="AT_00196" lat="48.220" lon="15.490" intensity="3.0" name="Hafnerbach"/>
  <station source="CECI998a" netid="INTENSITY" code="AT_00203" lat="47.560" lon="13.650" intensity="3.0" name="Hallstatt"/>
  <station source="CECI998a" netid="INTENSITY" code="AT_00212" lat="48.200" lon="14.450" intensity="3.0" name="Henhart"/>
  <station source="CECI998a" netid="INTENSITY" code="AT_00245" lat="47.266" lon="11.393" intensity="3.0" name="Innsbruck"/>
  <station source="CECI998a" netid="INTENSITY" code="AT_00273" lat="48.440" lon="14.540" intensity="3.0" name="Kefermarkt"/>
  <station source="CECI998a" netid="INTENSITY" code="BA_00012" lat="44.535" lon="16.783" intensity="3.0" name="Ključ"/>
  <station source="CECI998a" netid="INTENSITY" code="IT_20504" lat="46.687" lon="11.129" intensity="3.0" name="Lagundo"/>
  <station source="CECI998a" netid="INTENSITY" code="IT_20525" lat="46.613" lon="11.157" intensity="3.0" name="Lana"/>
  <station source="CECI998a" netid="INTENSITY" code="CZ_00068" lat="49.914" lon="16.617" intensity="3.0" name="Lanškroun"/>
  <station source="CECI998a" netid="INTENSITY" code="AT_00361" lat="48.306" lon="14.286" intensity="3.0" name="Linz"/>
  <station source="CECI998a" netid="INTENSITY" code="IT_20756" lat="46.541" lon="11.467" intensity="3.0" name="Longomoso"/>
  <station source="CECI998a" netid="INTENSITY" code="AT_00370" lat="48.673" lon="16.183" intensity="3.0" name="Mailberg"/>
  <station source="CECI998a" netid="INTENSITY" code="IT_20607" lat="46.587" lon="11.256" intensity="3.0" name="Meltina"/>
  <station source="CECI998a" netid="INTENSITY" code="IT_21849" lat="46.418" lon="11.205" intensity="3.0" name="Mendola"/>
  <station source="CECI998a" netid="INTENSITY" code="IT_21603" lat="46.212" lon="11.093" intensity="3.0" name="Mezzolombardo"/>
  <station source="CECI998a" netid="INTENSITY" code="AT_00403" lat="47.997" lon="16.471" intensity="3.0" name="Mitterndorf an der Fischa"/>
  <station source="CECI998a" netid="INTENSITY" code="IT_21628" lat="45.852" lon="10.978" intensity="3.0" name="Mori"/>
  <station source="CECI998a" netid="INTENSITY" code="IT_20656" lat="46.430" lon="11.540" intensity="3.0" name="Nova Levante"/>
  <station source="CECI998a" netid="INTENSITY" code="AT_00461" lat="47.960" lon="13.790" intensity="3.0" name="Ohlsdorf"/>
  <station source="CECI998a" netid="INTENSITY" code="RO_00030" lat="47.060" lon="21.932" intensity="3.0" name="Oradea"/>
  <station source="CECI998a" netid="INTENSITY" code="HU_00135" lat="47.331" lon="17.467" intensity="3.0" name="Papa"/>
  <station source="CECI998a" netid="INTENSITY" code="IT_21723" lat="46.159" lon="10.765" intensity="3.0" name="Pinzolo"/>
  <station source="CECI998a" netid="INTENSITY" code="AT_00492" lat="47.670" lon="15.770" intensity="3.0" name="Prein"/>
  <station source="CECI998a" netid="INTENSITY" code="AT_00504" lat="48.159" lon="15.685" intensity="3.0" name="Pyhra"/>
  <station source="CECI998a" netid="INTENSITY" code="AT_00522" lat="47.140" lon="15.290" intensity="3.0" name="Rein"/>
  <station source="CECI998a" netid="INTENSITY" code="AT_00526" lat="48.757" lon="15.952" intensity="3.0" name="Retz"/>
  <station source="CECI998a" netid="INTENSITY" code="AT_00537" lat="48.666" lon="15.886" intensity="3.0" name="Röschitz"/>
  <station source="CECI998a" netid="INTENSITY" code="AT_00550" lat="47.798" lon="13.046" intensity="3.0" name="Salzburg"/>
  <station source="CECI998a" netid="INTENSITY" code="BA_00015" lat="44.763" lon="16.668" intensity="3.0" name="Sanski most"/>
  <station source="CECI998a" netid="INTENSITY" code="IT_20986" lat="46.489" lon="10.875" intensity="3.0" name="Santa Gertrude"/>
  <station source="CECI998a" netid="INTENSITY" code="IT_21064" lat="46.739" lon="11.597" intensity="3.0" name="Scaleres"/>
  <station source="CECI998a" netid="INTENSITY" code="AT_00565" lat="47.320" lon="13.160" intensity="3.0" name="Schwarzach im Pongau"/>
  <station source="CECI998a" netid="INTENSITY" code="AT_00569" lat="47.347" lon="11.709" intensity="3.0" name="Schwaz"/>
  <station source="CECI998a" netid="INTENSITY" code="AT_00577" lat="47.213" lon="11.213" intensity="3.0" name="Sellrain"/>
  <station source="CECI998a" netid="INTENSITY" code="AT_00592" lat="48.598" lon="15.942" intensity="3.0" name="Sitzendorf an der Schmida"/>
  <station source="CECI998a" netid="INTENSITY" code="HU_00148" lat="47.686" lon="16.591" intensity="3.0" name="Sopron"/>
  <station source="CECI998a" netid="INTENSITY" code="IT_21914" lat="46.103" lon="10.738" intensity="3.0" name="Spiazzo (San Vigilio)"/>
  <station source="CECI998a" netid="INTENSITY" code="AT_00601" lat="47.670" lon="14.340" intensity="3.0" name="Spital am Pyhrn"/>
  <station source="CECI998a" netid="INTENSITY" code="AT_00624" lat="47.349" lon="13.203" intensity="3.0" name="St. Johann im Pongau"/>
  <station source="CECI998a" netid="INTENSITY" code="IT_20931" lat="46.598" lon="10.547" intensity="3.0" name="Stelvio"/>
  <station source="CECI998a" netid="INTENSITY" code="IT_20942" lat="46.531" lon="11.251" intensity="3.0" name="Terlano"/>
  <station source="CECI998a" netid="INTENSITY" code="IT_20979" lat="46.645" lon="10.464" intensity="3.0" name="Tubre"/>
  <station source="CECI998a" netid="INTENSITY" code="IT_17039" lat="45.760" lon="10.596" intensity="3.0" name="Valvestino (Turano)"/>
  <station source="CECI998a" netid="INTENSITY" code="BA_00017" lat="45.167" lon="15.800" intensity="3.0" name="Velika Kladuša"/>
  <station source="CECI998a" netid="INTENSITY" code="IT_21082" lat="46.631" lon="11.539" intensity="3.0" name="Villandro"/>
  <station source="CECI998a" netid="INTENSITY" code="AT_00743" lat="47.003" lon="12.457" intensity="3.0" name="Virgen"/>
  <station source="CECI998a" netid="INTENSITY" code="AT_00748" lat="47.410" lon="15.890" intensity="3.0" name="Vorau"/>
  <station source="CECI998a" netid="INTENSITY" code="AT_00752" lat="47.960" lon="14.774" intensity="3.0" name="Waidhofen an der Ybbs"/>
  <station source="CECI998a" netid="INTENSITY" code="AT_00772" lat="47.220" lon="15.620" intensity="3.0" name="Weiz"/>
  <station source="CECI998a" netid="INTENSITY" code="PL_00002" lat="51.160" lon="15.340" intensity="2.5" name="Boleslawiec"/>
  <station source="CECI998a" netid="INTENSITY" code="SK_00003" lat="48.148" lon="17.108" intensity="2.5" name="Bratislava"/>
  <station source="CECI998a" netid="INTENSITY" code="CH_00723" lat="47.340" lon="8.540" intensity="2.5" name="Frauenfeld"/>
  <station source="CECI998a" netid="INTENSITY" code="CZ_00066" lat="49.300" lon="17.400" intensity="2.5" name="Kromeriž"/>
  <station source="CECI998a" netid="INTENSITY" code="CH_00359" lat="46.326" lon="10.058" intensity="2.5" name="Poschiavo"/>
  <station source="CECI998a" netid="INTENSITY" code="AT_00032" lat="48.220" lon="16.480" intensity="2.0" name="Aspern"/>
  <station source="CECI998a" netid="INTENSITY" code="HU_00032" lat="47.731" lon="17.669" intensity="2.0" name="Bacsa ?"/>
  <station source="CECI998a" netid="INTENSITY" code="HU_00041" lat="45.961" lon="17.463" intensity="2.0" name="Barcs"/>
  <station source="CECI998a" netid="INTENSITY" code="AT_00052" lat="48.690" lon="16.870" intensity="2.0" name="Bernhardsthal"/>
  <station source="CECI998a" netid="INTENSITY" code="HU_00044" lat="46.214" lon="17.151" intensity="2.0" name="Berzencze"/>
  <station source="CECI998a" netid="INTENSITY" code="CZ_00040" lat="48.760" lon="16.881" intensity="2.0" name="Břeclav"/>
  <station source="CECI998a" netid="INTENSITY" code="HR_00078" lat="46.391" lon="16.441" intensity="2.0" name="Čakovec"/>
  <station source="CECI998a" netid="INTENSITY" code="AT_00094" lat="47.877" lon="16.371" intensity="2.0" name="Ebenfurth"/>
  <station source="CECI998a" netid="INTENSITY" code="CH_01034" lat="47.420" lon="8.380" intensity="2.0" name="Schaffhausen"/>
  <station source="CECI998a" netid="INTENSITY" code="AT_00570" lat="48.140" lon="16.480" intensity="2.0" name="Schwechat"/>
  <station source="CECI998a" netid="INTENSITY" code="AT_00595" lat="47.896" lon="16.250" intensity="2.0" name="Sollenau"/>
  <station source="CECI998a" netid="INTENSITY" code="AT_00667" lat="48.039" lon="14.419" intensity="2.0" name="Steyr"/>
  <station source="CECI998a" netid="INTENSITY" code="AT_00671" lat="48.410" lon="16.840" intensity="2.0" name="Stillfried"/>
  <station source="CECI998a" netid="INTENSITY" code="HU_00158" lat="47.235" lon="16.624" intensity="2.0" name="Szombathely"/>
  <station source="CECI998a" netid="INTENSITY" code="AT_00777" lat="48.208" lon="16.373" intensity="2.0" name="Wien"/>
  <station source="CECI998a" netid="INTENSITY" code="HU_00173" lat="46.281" lon="16.946" intensity="2.0" name="Zakany"/>
  <station source="CECI998a" netid="INTENSITY" code="HU_00175" lat="46.891" lon="16.896" intensity="2.0" name="Zalaszentivan"/>
  <station source="CECI998a" netid="INTENSITY" code="SI_00435" lat="46.215" lon="14.397" intensity="1.8" name="Prebačevo"/>
  <station source="CECI998a" netid="INTENSITY" code="SI_00205" lat="45.848" lon="14.368" intensity="1.0" name="Dobec"/>
  <station source="CECI998a" netid="INTENSITY" code="SI_00033" lat="45.564" lon="14.245" intensity="1.0" name="Ilirska Bistrica"/>
  <station source="CECI998a" netid="INTENSITY" code="HR_00137" lat="42.715" lon="17.668" intensity="1.0" name="Mljet"/>
  <station source="CECI998a" netid="INTENSITY" code="ME_00018" lat="42.143" lon="19.044" intensity="1.0" name="Sutomore"/>
</stationlist>
