<?xml version="1.0" encoding="UTF-8"?>
<stationlist reference="DBMI15v4" created="20250821142356">
  <station source="TAXE003" netid="INTENSITY" code="TR_00293" lat="38.427" lon="27.415" intensity="9.0" name="KemalpaÅŸa"/>
  <station source="TAXE003" netid="INTENSITY" code="TR_00298" lat="38.400" lon="27.650" intensity="9.0" name="Parsa"/>
  <station source="TAXE003" netid="INTENSITY" code="TR_00132" lat="38.505" lon="27.702" intensity="9.0" name="Turgutlu"/>
  <station source="TAXE003" netid="INTENSITY" code="TR_00079" lat="38.416" lon="27.137" intensity="4.5" name="Izmir"/>
  <station source="TAXE003" netid="INTENSITY" code="GR_00126" lat="37.757" lon="26.976" intensity="4.5" name="Samos"/>
</stationlist>
