<?xml version="1.0" encoding="UTF-8"?>
<stationlist reference="DBMI15v4" created="20250808064910">
  <station source="SPAAL985c" netid="INTENSITY" code="IT_71110" lat="42.417" lon="12.917" intensity="8.0" name="Coppaeli Basso"/>
  <station source="SPAAL985c" netid="INTENSITY" code="IT_53526" lat="42.424" lon="12.931" intensity="8.0" name="Cupaello"/>
  <station source="SPAAL985c" netid="INTENSITY" code="IT_53515" lat="42.402" lon="12.860" intensity="8.0" name="Rieti"/>
  <station source="SPAAL985c" netid="INTENSITY" code="IT_53186" lat="42.386" lon="12.949" intensity="7.5" name="Cittaducale"/>
  <station source="SPAAL985c" netid="INTENSITY" code="IT_53194" lat="42.409" lon="12.930" intensity="7.5" name="Santa Rufina"/>
  <station source="SPAAL985c" netid="INTENSITY" code="IT_53112" lat="42.316" lon="12.892" intensity="7.0" name="Belmonte in Sabina"/>
  <station source="SPAAL985c" netid="INTENSITY" code="IT_53499" lat="42.436" lon="12.897" intensity="7.0" name="Castelfranco"/>
  <station source="SPAAL985c" netid="INTENSITY" code="IT_53527" lat="42.441" lon="12.935" intensity="7.0" name="Lugnano"/>
  <station source="SPAAL985c" netid="INTENSITY" code="IT_53156" lat="42.252" lon="12.804" intensity="6.5" name="Casaprota"/>
  <station source="SPAAL985c" netid="INTENSITY" code="IT_53339" lat="42.566" lon="12.962" intensity="6.5" name="Leonessa"/>
  <station source="SPAAL985c" netid="INTENSITY" code="IT_53504" lat="42.448" lon="12.918" intensity="6.5" name="Lisciano"/>
  <station source="SPAAL985c" netid="INTENSITY" code="IT_53334" lat="42.556" lon="12.994" intensity="6.5" name="Piedelpoggio"/>
  <station source="SPAAL985c" netid="INTENSITY" code="IT_53532" lat="42.503" lon="12.844" intensity="6.0" name="Apoleggia"/>
  <station source="SPAAL985c" netid="INTENSITY" code="IT_53145" lat="42.466" lon="12.904" intensity="6.0" name="Cantalice"/>
  <station source="SPAAL985c" netid="INTENSITY" code="IT_50208" lat="42.609" lon="12.585" intensity="6.0" name="Cesi"/>
  <station source="SPAAL985c" netid="INTENSITY" code="IT_53406" lat="42.509" lon="12.825" intensity="6.0" name="Collatea"/>
  <station source="SPAAL985c" netid="INTENSITY" code="IT_50212" lat="42.536" lon="12.620" intensity="6.0" name="Collescipoli"/>
  <station source="SPAAL985c" netid="INTENSITY" code="IT_53305" lat="42.444" lon="12.753" intensity="6.0" name="Greccio"/>
  <station source="SPAAL985c" netid="INTENSITY" code="IT_53317" lat="42.525" lon="12.800" intensity="6.0" name="Labro"/>
  <station source="SPAAL985c" netid="INTENSITY" code="IT_53413" lat="42.527" lon="12.832" intensity="6.0" name="Morro Reatino"/>
  <station source="SPAAL985c" netid="INTENSITY" code="IT_50076" lat="42.517" lon="12.521" intensity="6.0" name="Narni"/>
  <station source="SPAAL985c" netid="INTENSITY" code="IT_50229" lat="42.550" lon="12.691" intensity="6.0" name="Papigno"/>
  <station source="SPAAL985c" netid="INTENSITY" code="IT_53468" lat="42.501" lon="12.888" intensity="6.0" name="Poggio Bustone"/>
  <station source="SPAAL985c" netid="INTENSITY" code="IT_53482" lat="42.295" lon="12.692" intensity="6.0" name="Poggio Catino"/>
  <station source="SPAAL985c" netid="INTENSITY" code="IT_53472" lat="42.265" lon="12.686" intensity="6.0" name="Poggio Mirteto"/>
  <station source="SPAAL985c" netid="INTENSITY" code="IT_53477" lat="42.201" lon="12.878" intensity="6.0" name="Poggio Moiano"/>
  <station source="SPAAL985c" netid="INTENSITY" code="IT_53536" lat="42.515" lon="12.856" intensity="6.0" name="Rivodutri"/>
  <station source="SPAAL985c" netid="INTENSITY" code="IT_50252" lat="42.562" lon="12.647" intensity="6.0" name="Terni"/>
  <station source="SPAAL985c" netid="INTENSITY" code="IT_53571" lat="42.261" lon="12.871" intensity="6.0" name="Torricella in Sabina"/>
  <station source="SPAAL985c" netid="INTENSITY" code="IT_49885" lat="42.690" lon="12.546" intensity="5.0" name="Acquasparta"/>
  <station source="SPAAL985c" netid="INTENSITY" code="IT_53102" lat="42.415" lon="13.076" intensity="5.0" name="Antrodoco"/>
  <station source="SPAAL985c" netid="INTENSITY" code="IT_53139" lat="42.405" lon="13.059" intensity="5.0" name="Borgo Velino"/>
  <station source="SPAAL985c" netid="INTENSITY" code="IT_53176" lat="42.393" lon="13.023" intensity="5.0" name="Castel Sant'Angelo"/>
  <station source="SPAAL985c" netid="INTENSITY" code="IT_53241" lat="42.411" lon="12.769" intensity="5.0" name="Contigliano"/>
  <station source="SPAAL985c" netid="INTENSITY" code="IT_53771" lat="42.170" lon="12.590" intensity="5.0" name="Fiano Romano"/>
  <station source="SPAAL985c" netid="INTENSITY" code="IT_53773" lat="42.255" lon="12.601" intensity="5.0" name="Filacciano"/>
  <station source="SPAAL985c" netid="INTENSITY" code="IT_48817" lat="42.955" lon="12.704" intensity="5.0" name="Foligno"/>
  <station source="SPAAL985c" netid="INTENSITY" code="IT_55390" lat="41.639" lon="13.514" intensity="5.0" name="Monte San Giovanni Campano"/>
  <station source="SPAAL985c" netid="INTENSITY" code="IT_50233" lat="42.536" lon="12.755" intensity="5.0" name="Piediluco"/>
  <station source="SPAAL985c" netid="INTENSITY" code="IT_53483" lat="42.252" lon="12.844" intensity="5.0" name="Poggio San Lorenzo"/>
  <station source="SPAAL985c" netid="INTENSITY" code="IT_49513" lat="42.711" lon="12.934" intensity="5.0" name="Poggiodomo"/>
  <station source="SPAAL985c" netid="INTENSITY" code="IT_54017" lat="41.760" lon="12.710" intensity="5.0" name="Rocca di Papa"/>
  <station source="SPAAL985c" netid="INTENSITY" code="IT_50159" lat="42.613" lon="12.547" intensity="5.0" name="San Gemini"/>
  <station source="SPAAL985c" netid="INTENSITY" code="IT_53437" lat="42.240" lon="13.181" intensity="5.0" name="Sant'Elpidio"/>
  <station source="SPAAL985c" netid="INTENSITY" code="IT_49693" lat="42.736" lon="12.737" intensity="5.0" name="Spoleto"/>
  <station source="SPAAL985c" netid="INTENSITY" code="IT_50260" lat="42.572" lon="12.736" intensity="5.0" name="Torreorsina"/>
  <station source="SPAAL985c" netid="INTENSITY" code="IT_53025" lat="42.416" lon="12.107" intensity="5.0" name="Viterbo"/>
  <station source="SPAAL985c" netid="INTENSITY" code="IT_52824" lat="42.381" lon="12.233" intensity="4.5" name="Canepina"/>
  <station source="SPAAL985c" netid="INTENSITY" code="IT_48904" lat="42.833" lon="12.578" intensity="4.5" name="Giano dell'Umbria"/>
  <station source="SPAAL985c" netid="INTENSITY" code="IT_53369" lat="42.451" lon="13.055" intensity="4.5" name="Micigliano"/>
  <station source="SPAAL985c" netid="INTENSITY" code="IT_49153" lat="42.893" lon="12.652" intensity="4.5" name="Montefalco"/>
  <station source="SPAAL985c" netid="INTENSITY" code="IT_53919" lat="42.054" lon="12.623" intensity="4.5" name="Monterotondo"/>
  <station source="SPAAL985c" netid="INTENSITY" code="IT_53936" lat="42.229" lon="12.596" intensity="4.5" name="Nazzano"/>
  <station source="SPAAL985c" netid="INTENSITY" code="IT_53946" lat="42.160" lon="12.787" intensity="4.5" name="Nerola"/>
  <station source="SPAAL985c" netid="INTENSITY" code="IT_49251" lat="42.793" lon="13.094" intensity="4.5" name="Norcia"/>
  <station source="SPAAL985c" netid="INTENSITY" code="IT_50136" lat="42.422" lon="12.478" intensity="4.5" name="Otricoli"/>
  <station source="SPAAL985c" netid="INTENSITY" code="IT_53971" lat="41.839" lon="12.891" intensity="4.5" name="Palestrina"/>
  <station source="SPAAL985c" netid="INTENSITY" code="IT_53973" lat="42.066" lon="12.766" intensity="4.5" name="Palombara Sabina"/>
  <station source="SPAAL985c" netid="INTENSITY" code="IT_53996" lat="42.257" lon="12.572" intensity="4.5" name="Ponzano Romano"/>
  <station source="SPAAL985c" netid="INTENSITY" code="IT_52940" lat="42.291" lon="12.217" intensity="4.5" name="Ronciglione"/>
  <station source="SPAAL985c" netid="INTENSITY" code="IT_56181" lat="42.352" lon="13.299" intensity="4.5" name="Sassa"/>
  <station source="SPAAL985c" netid="INTENSITY" code="IT_56372" lat="42.366" lon="13.182" intensity="4.5" name="Sella di Corno"/>
  <station source="SPAAL985c" netid="INTENSITY" code="IT_54435" lat="41.925" lon="13.095" intensity="4.5" name="Subiaco"/>
  <station source="SPAAL985c" netid="INTENSITY" code="IT_49785" lat="42.781" lon="12.407" intensity="4.5" name="Todi"/>
  <station source="SPAAL985c" netid="INTENSITY" code="IT_56374" lat="42.349" lon="13.219" intensity="4.5" name="Vigliano"/>
  <station source="SPAAL985c" netid="INTENSITY" code="IT_53035" lat="42.695" lon="13.248" intensity="4.0" name="Accumoli"/>
  <station source="SPAAL985c" netid="INTENSITY" code="IT_53594" lat="41.728" lon="12.659" intensity="4.0" name="Albano Laziale"/>
  <station source="SPAAL985c" netid="INTENSITY" code="IT_53652" lat="41.720" lon="12.671" intensity="4.0" name="Ariccia"/>
  <station source="SPAAL985c" netid="INTENSITY" code="IT_53661" lat="42.040" lon="13.019" intensity="4.0" name="Arsoli"/>
  <station source="SPAAL985c" netid="INTENSITY" code="IT_52305" lat="42.855" lon="13.576" intensity="4.0" name="Ascoli Piceno"/>
  <station source="SPAAL985c" netid="INTENSITY" code="IT_48435" lat="43.070" lon="12.616" intensity="4.0" name="Assisi"/>
  <station source="SPAAL985c" netid="INTENSITY" code="IT_52800" lat="42.626" lon="12.095" intensity="4.0" name="Bagnoregio [Bagnorea]"/>
  <station source="SPAAL985c" netid="INTENSITY" code="IT_48487" lat="42.932" lon="12.608" intensity="4.0" name="Bevagna"/>
  <station source="SPAAL985c" netid="INTENSITY" code="IT_51576" lat="43.137" lon="13.226" intensity="4.0" name="Caldarola"/>
  <station source="SPAAL985c" netid="INTENSITY" code="IT_49952" lat="42.401" lon="12.567" intensity="4.0" name="Calvi dell'Umbria"/>
  <station source="SPAAL985c" netid="INTENSITY" code="IT_48509" lat="42.994" lon="12.583" intensity="4.0" name="Cannara"/>
  <station source="SPAAL985c" netid="INTENSITY" code="IT_53726" lat="41.746" lon="12.651" intensity="4.0" name="Castel Gandolfo"/>
  <station source="SPAAL985c" netid="INTENSITY" code="IT_48554" lat="42.822" lon="12.673" intensity="4.0" name="Castel Ritaldi"/>
  <station source="SPAAL985c" netid="INTENSITY" code="IT_55110" lat="41.568" lon="13.334" intensity="4.0" name="Ceccano"/>
  <station source="SPAAL985c" netid="INTENSITY" code="IT_48621" lat="42.819" lon="12.917" intensity="4.0" name="Cerreto di Spoleto"/>
  <station source="SPAAL985c" netid="INTENSITY" code="IT_53781" lat="41.808" lon="12.681" intensity="4.0" name="Frascati"/>
  <station source="SPAAL985c" netid="INTENSITY" code="IT_53793" lat="41.707" lon="12.688" intensity="4.0" name="Genzano di Roma"/>
  <station source="SPAAL985c" netid="INTENSITY" code="IT_55315" lat="41.538" lon="13.280" intensity="4.0" name="Giuliano di Roma"/>
  <station source="SPAAL985c" netid="INTENSITY" code="IT_52885" lat="42.627" lon="11.828" intensity="4.0" name="Latera"/>
  <station source="SPAAL985c" netid="INTENSITY" code="IT_53873" lat="41.770" lon="12.661" intensity="4.0" name="Marino"/>
  <station source="SPAAL985c" netid="INTENSITY" code="IT_53386" lat="42.385" lon="12.681" intensity="4.0" name="Montasola"/>
  <station source="SPAAL985c" netid="INTENSITY" code="IT_54018" lat="41.751" lon="12.710" intensity="4.0" name="Monte Cavo"/>
  <station source="SPAAL985c" netid="INTENSITY" code="IT_53915" lat="41.815" lon="12.716" intensity="4.0" name="Monte Porzio Catone"/>
  <station source="SPAAL985c" netid="INTENSITY" code="IT_53885" lat="41.807" lon="12.736" intensity="4.0" name="Montecompatri"/>
  <station source="SPAAL985c" netid="INTENSITY" code="IT_53940" lat="41.717" lon="12.717" intensity="4.0" name="Nemi"/>
  <station source="SPAAL985c" netid="INTENSITY" code="IT_52931" lat="42.460" lon="12.385" intensity="4.0" name="Orte"/>
  <station source="SPAAL985c" netid="INTENSITY" code="IT_49390" lat="43.112" lon="12.389" intensity="4.0" name="Perugia"/>
  <station source="SPAAL985c" netid="INTENSITY" code="IT_53484" lat="42.524" lon="13.097" intensity="4.0" name="Posta"/>
  <station source="SPAAL985c" netid="INTENSITY" code="IT_53105" lat="42.378" lon="13.155" intensity="4.0" name="Rocca di Corno"/>
  <station source="SPAAL985c" netid="INTENSITY" code="IT_53107" lat="42.388" lon="13.084" intensity="4.0" name="Rocca di Fondi"/>
  <station source="SPAAL985c" netid="INTENSITY" code="IT_54021" lat="41.790" lon="12.755" intensity="4.0" name="Rocca Priora"/>
  <station source="SPAAL985c" netid="INTENSITY" code="IT_54413" lat="42.034" lon="12.713" intensity="4.0" name="Sant'Angelo Romano"/>
  <station source="SPAAL985c" netid="INTENSITY" code="IT_49587" lat="42.712" lon="12.830" intensity="4.0" name="Scheggino"/>
  <station source="SPAAL985c" netid="INTENSITY" code="IT_49610" lat="42.888" lon="12.927" intensity="4.0" name="Sellano"/>
  <station source="SPAAL985c" netid="INTENSITY" code="IT_52947" lat="42.418" lon="12.235" intensity="4.0" name="Soriano nel Cimino"/>
  <station source="SPAAL985c" netid="INTENSITY" code="IT_50200" lat="42.498" lon="12.662" intensity="4.0" name="Stroncone"/>
  <station source="SPAAL985c" netid="INTENSITY" code="IT_54445" lat="41.964" lon="12.798" intensity="4.0" name="Tivoli"/>
  <station source="SPAAL985c" netid="INTENSITY" code="IT_55800" lat="41.862" lon="13.248" intensity="4.0" name="Trevi nel Lazio"/>
  <station source="SPAAL985c" netid="INTENSITY" code="IT_52959" lat="42.420" lon="11.870" intensity="4.0" name="Tuscania [Toscanella]"/>
  <station source="SPAAL985c" netid="INTENSITY" code="IT_49866" lat="43.158" lon="12.602" intensity="4.0" name="Valfabbrica"/>
  <station source="SPAAL985c" netid="INTENSITY" code="IT_54464" lat="41.688" lon="12.778" intensity="4.0" name="Velletri"/>
  <station source="SPAAL985c" netid="INTENSITY" code="IT_52967" lat="42.320" lon="12.055" intensity="4.0" name="Vetralla"/>
  <station source="SPAAL985c" netid="INTENSITY" code="IT_49901" lat="42.590" lon="12.297" intensity="3.0" name="Alviano"/>
  <station source="SPAAL985c" netid="INTENSITY" code="IT_56454" lat="42.580" lon="13.978" intensity="3.0" name="Atri"/>
  <station source="SPAAL985c" netid="INTENSITY" code="IT_55944" lat="42.032" lon="13.426" intensity="3.0" name="Avezzano"/>
  <station source="SPAAL985c" netid="INTENSITY" code="IT_51588" lat="43.135" lon="13.068" intensity="3.0" name="Camerino"/>
  <station source="SPAAL985c" netid="INTENSITY" code="IT_50003" lat="42.835" lon="12.066" intensity="3.0" name="Ficulle"/>
  <station source="SPAAL985c" netid="INTENSITY" code="IT_55316" lat="41.799" lon="13.314" intensity="3.0" name="Guarcino"/>
  <station source="SPAAL985c" netid="INTENSITY" code="IT_56142" lat="42.351" lon="13.399" intensity="3.0" name="L'Aquila"/>
  <station source="SPAAL985c" netid="INTENSITY" code="IT_51792" lat="43.300" lon="13.453" intensity="3.0" name="Macerata"/>
  <station source="SPAAL985c" netid="INTENSITY" code="IT_50029" lat="42.650" lon="12.487" intensity="3.0" name="Montecastrilli"/>
  <station source="SPAAL985c" netid="INTENSITY" code="IT_52612" lat="43.130" lon="13.537" intensity="3.0" name="Montegiorgio"/>
  <station source="SPAAL985c" netid="INTENSITY" code="IT_56803" lat="42.582" lon="13.629" intensity="3.0" name="Montorio al Vomano"/>
  <station source="SPAAL985c" netid="INTENSITY" code="IT_49497" lat="42.970" lon="12.086" intensity="3.0" name="Piegaro"/>
  <station source="SPAAL985c" netid="INTENSITY" code="IT_55505" lat="41.456" lon="13.667" intensity="3.0" name="Pontecorvo"/>
  <station source="SPAAL985c" netid="INTENSITY" code="IT_52040" lat="43.229" lon="13.177" intensity="3.0" name="San Severino Marche"/>
  <station source="SPAAL985c" netid="INTENSITY" code="IT_52187" lat="42.931" lon="13.088" intensity="3.0" name="Visso"/>
  <station source="SPAAL985c" netid="INTENSITY" code="IT_56444" lat="42.837" lon="13.742" intensity="2.0" name="Ancarano"/>
  <station source="SPAAL985c" netid="INTENSITY" code="IT_53687" lat="42.103" lon="12.176" intensity="2.0" name="Bracciano"/>
  <station source="SPAAL985c" netid="INTENSITY" code="IT_56013" lat="42.266" lon="13.769" intensity="2.0" name="Capestrano"/>
  <station source="SPAAL985c" netid="INTENSITY" code="IT_51162" lat="43.320" lon="12.985" intensity="2.0" name="Cerreto d'Esi"/>
  <station source="SPAAL985c" netid="INTENSITY" code="IT_47200" lat="43.252" lon="11.819" intensity="2.0" name="Foiano della Chiana"/>
  <station source="SPAAL985c" netid="INTENSITY" code="IT_54525" lat="41.358" lon="13.427" intensity="2.0" name="Fondi"/>
  <station source="SPAAL985c" netid="INTENSITY" code="IT_51810" lat="43.256" lon="13.009" intensity="2.0" name="Matelica"/>
  <station source="SPAAL985c" netid="INTENSITY" code="IT_50591" lat="43.751" lon="13.096" intensity="2.0" name="Mondolfo"/>
  <station source="SPAAL985c" netid="INTENSITY" code="IT_51334" lat="43.526" lon="13.063" intensity="2.0" name="Montecarotto"/>
  <station source="SPAAL985c" netid="INTENSITY" code="IT_53950" lat="41.459" lon="12.663" intensity="2.0" name="Nettuno"/>
  <station source="SPAAL985c" netid="INTENSITY" code="IT_51373" lat="43.485" lon="13.483" intensity="2.0" name="Osimo"/>
  <station source="SPAAL985c" netid="INTENSITY" code="IT_50746" lat="43.563" lon="12.837" intensity="2.0" name="Pergola"/>
  <station source="SPAAL985c" netid="INTENSITY" code="IT_57381" lat="42.398" lon="14.050" intensity="2.0" name="Pianella"/>
  <station source="SPAAL985c" netid="INTENSITY" code="IT_51929" lat="43.178" lon="12.986" intensity="2.0" name="Pioraco"/>
  <station source="SPAAL985c" netid="INTENSITY" code="IT_59246" lat="41.446" lon="13.968" intensity="2.0" name="San Pietro Infine [vecchio]"/>
  <station source="SPAAL985c" netid="INTENSITY" code="IT_56355" lat="41.903" lon="13.881" intensity="2.0" name="Scanno"/>
  <station source="SPAAL985c" netid="INTENSITY" code="IT_51516" lat="43.714" lon="13.223" intensity="2.0" name="Senigallia"/>
  <station source="SPAAL985c" netid="INTENSITY" code="IT_54738" lat="41.288" lon="13.233" intensity="2.0" name="Terracina"/>
  <station source="SPAAL985c" netid="INTENSITY" code="IT_55198" lat="41.691" lon="13.254" intensity="1.8" name="Ferentino"/>
  <station source="SPAAL985c" netid="INTENSITY" code="IT_50227" lat="42.547" lon="12.714" intensity="1.8" name="Marmore"/>
  <station source="SPAAL985c" netid="INTENSITY" code="IT_53544" lat="42.275" lon="12.927" intensity="1.8" name="Rocca Sinibalda"/>
  <station source="SPAAL985c" netid="INTENSITY" code="IT_47956" lat="43.318" lon="11.332" intensity="1.8" name="Siena"/>
  <station source="SPAAL985c" netid="INTENSITY" code="IT_56978" lat="42.659" lon="13.703" intensity="1.8" name="Teramo"/>
  <station source="SPAAL985c" netid="INTENSITY" code="IT_52793" lat="42.742" lon="11.868" intensity="1.0" name="Acquapendente"/>
  <station source="SPAAL985c" netid="INTENSITY" code="IT_53600" lat="42.155" lon="11.903" intensity="1.0" name="Allumiere"/>
  <station source="SPAAL985c" netid="INTENSITY" code="IT_54873" lat="41.619" lon="13.800" intensity="1.0" name="Atina"/>
  <station source="SPAAL985c" netid="INTENSITY" code="IT_54874" lat="41.605" lon="13.800" intensity="1.0" name="Cancello"/>
  <station source="SPAAL985c" netid="INTENSITY" code="IT_50757" lat="43.855" lon="12.887" intensity="1.0" name="Candelara"/>
  <station source="SPAAL985c" netid="INTENSITY" code="IT_58286" lat="41.833" lon="14.264" intensity="1.0" name="Capracotta"/>
  <station source="SPAAL985c" netid="INTENSITY" code="IT_58922" lat="41.467" lon="14.148" intensity="1.0" name="Capriati a Volturno"/>
  <station source="SPAAL985c" netid="INTENSITY" code="IT_57131" lat="42.157" lon="14.003" intensity="1.0" name="Caramanico Terme [Caramanico]"/>
  <station source="SPAAL985c" netid="INTENSITY" code="IT_48579" lat="43.126" lon="12.051" intensity="1.0" name="Castiglione del Lago"/>
  <station source="SPAAL985c" netid="INTENSITY" code="IT_53750" lat="41.997" lon="12.099" intensity="1.0" name="Cerveteri"/>
  <station source="SPAAL985c" netid="INTENSITY" code="IT_52414" lat="43.024" lon="13.860" intensity="1.0" name="Cupra Marittima"/>
  <station source="SPAAL985c" netid="INTENSITY" code="IT_51243" lat="43.626" lon="13.399" intensity="1.0" name="Falconara Marittima"/>
  <station source="SPAAL985c" netid="INTENSITY" code="IT_57278" lat="42.441" lon="13.824" intensity="1.0" name="Farindola"/>
  <station source="SPAAL985c" netid="INTENSITY" code="IT_50473" lat="43.675" lon="12.647" intensity="1.0" name="Fermignano"/>
  <station source="SPAAL985c" netid="INTENSITY" code="IT_48881" lat="43.295" lon="12.762" intensity="1.0" name="Fossato di Vico"/>
  <station source="SPAAL985c" netid="INTENSITY" code="IT_50515" lat="43.966" lon="12.757" intensity="1.0" name="Gabicce Mare"/>
  <station source="SPAAL985c" netid="INTENSITY" code="IT_49028" lat="43.351" lon="12.577" intensity="1.0" name="Gubbio"/>
  <station source="SPAAL985c" netid="INTENSITY" code="IT_48223" lat="42.586" lon="11.516" intensity="1.0" name="Manciano"/>
  <station source="SPAAL985c" netid="INTENSITY" code="IT_53857" lat="42.130" lon="12.130" intensity="1.0" name="Manziana"/>
  <station source="SPAAL985c" netid="INTENSITY" code="IT_47350" lat="43.686" lon="12.007" intensity="1.0" name="Mignano"/>
  <station source="SPAAL985c" netid="INTENSITY" code="IT_54592" lat="41.263" lon="13.746" intensity="1.0" name="Minturno"/>
  <station source="SPAAL985c" netid="INTENSITY" code="IT_50580" lat="43.674" lon="12.969" intensity="1.0" name="Mondavio"/>
  <station source="SPAAL985c" netid="INTENSITY" code="IT_47691" lat="43.058" lon="11.490" intensity="1.0" name="Montalcino"/>
  <station source="SPAAL985c" netid="INTENSITY" code="IT_52892" lat="42.351" lon="11.608" intensity="1.0" name="Montalto di Castro"/>
  <station source="SPAAL985c" netid="INTENSITY" code="IT_53478" lat="42.223" lon="12.774" intensity="1.0" name="Monte Santa Maria"/>
  <station source="SPAAL985c" netid="INTENSITY" code="IT_51367" lat="43.512" lon="13.622" intensity="1.0" name="Numana [Umana]"/>
  <station source="SPAAL985c" netid="INTENSITY" code="IT_56273" lat="42.136" lon="13.516" intensity="1.0" name="Ovindoli"/>
  <station source="SPAAL985c" netid="INTENSITY" code="IT_49296" lat="43.187" lon="12.136" intensity="1.0" name="Passignano sul Trasimeno"/>
  <station source="SPAAL985c" netid="INTENSITY" code="IT_56281" lat="42.025" lon="13.657" intensity="1.0" name="Pescina"/>
  <station source="SPAAL985c" netid="INTENSITY" code="IT_50814" lat="43.780" lon="12.734" intensity="1.0" name="Petriano"/>
  <station source="SPAAL985c" netid="INTENSITY" code="IT_59143" lat="41.271" lon="14.187" intensity="1.0" name="Pietramelara"/>
  <station source="SPAAL985c" netid="INTENSITY" code="IT_50843" lat="43.589" lon="12.512" intensity="1.0" name="Piobbico"/>
  <station source="SPAAL985c" netid="INTENSITY" code="IT_52684" lat="43.180" lon="13.794" intensity="1.0" name="Porto San Giorgio"/>
  <station source="SPAAL985c" netid="INTENSITY" code="IT_47864" lat="42.896" lon="11.769" intensity="1.0" name="Radicofani"/>
  <station source="SPAAL985c" netid="INTENSITY" code="IT_56311" lat="42.235" lon="13.490" intensity="1.0" name="Rocca di Cambio"/>
  <station source="SPAAL985c" netid="INTENSITY" code="IT_48291" lat="42.785" lon="11.508" intensity="1.0" name="Roccalbegna"/>
  <station source="SPAAL985c" netid="INTENSITY" code="IT_52745" lat="42.955" lon="13.880" intensity="1.0" name="San Benedetto del Tronto"/>
  <station source="SPAAL985c" netid="INTENSITY" code="IT_54654" lat="41.232" lon="13.090" intensity="1.0" name="San Felice Circeo"/>
  <station source="SPAAL985c" netid="INTENSITY" code="IT_56352" lat="41.833" lon="13.524" intensity="1.0" name="San Vincenzo Valle Roveto"/>
  <station source="SPAAL985c" netid="INTENSITY" code="IT_55601" lat="41.390" lon="13.870" intensity="1.0" name="Sant'Ambrogio sul Garigliano"/>
  <station source="SPAAL985c" netid="INTENSITY" code="IT_58563" lat="41.485" lon="14.044" intensity="1.0" name="Venafro"/>
</stationlist>
