<?xml version="1.0" encoding="UTF-8"?>
<stationlist reference="DBMI15v4" created="20250808064903">
  <station source="CFTI5med" netid="INTENSITY" code="IT_60654" lat="40.786" lon="15.218" intensity="8.5" name="Calabritto"/>
  <station source="CFTI5med" netid="INTENSITY" code="IT_60691" lat="40.870" lon="15.331" intensity="8.5" name="Conza della Campania"/>
  <station source="CFTI5med" netid="INTENSITY" code="IT_61112" lat="40.854" lon="15.255" intensity="8.5" name="Teora"/>
  <station source="CFTI5med" netid="INTENSITY" code="IT_62903" lat="40.650" lon="15.512" intensity="8.0" name="Balvano"/>
  <station source="CFTI5med" netid="INTENSITY" code="IT_61274" lat="40.633" lon="15.376" intensity="8.0" name="Buccino"/>
  <station source="CFTI5med" netid="INTENSITY" code="IT_60658" lat="40.900" lon="15.435" intensity="8.0" name="Calitri"/>
  <station source="CFTI5med" netid="INTENSITY" code="IT_60661" lat="40.813" lon="15.225" intensity="8.0" name="Caposele"/>
  <station source="CFTI5med" netid="INTENSITY" code="IT_61466" lat="40.726" lon="15.290" intensity="8.0" name="Colliano"/>
  <station source="CFTI5med" netid="INTENSITY" code="IT_61542" lat="40.784" lon="15.305" intensity="8.0" name="Laviano"/>
  <station source="CFTI5med" netid="INTENSITY" code="IT_63169" lat="40.753" lon="15.486" intensity="8.0" name="Muro Lucano"/>
  <station source="CFTI5med" netid="INTENSITY" code="IT_61654" lat="40.691" lon="15.232" intensity="8.0" name="Oliveto Citra"/>
  <station source="CFTI5med" netid="INTENSITY" code="IT_61688" lat="40.662" lon="15.292" intensity="8.0" name="Palomonte"/>
  <station source="CFTI5med" netid="INTENSITY" code="IT_63180" lat="40.836" lon="15.399" intensity="8.0" name="Pescopagano"/>
  <station source="CFTI5med" netid="INTENSITY" code="IT_60655" lat="40.745" lon="15.236" intensity="8.0" name="Quaglietta"/>
  <station source="CFTI5med" netid="INTENSITY" code="IT_61761" lat="40.668" lon="15.482" intensity="8.0" name="Ricigliano"/>
  <station source="CFTI5med" netid="INTENSITY" code="IT_63290" lat="40.848" lon="15.540" intensity="8.0" name="Ruvo del Monte"/>
  <station source="CFTI5med" netid="INTENSITY" code="IT_61875" lat="40.656" lon="15.404" intensity="8.0" name="San Gregorio Magno"/>
  <station source="CFTI5med" netid="INTENSITY" code="IT_61153" lat="41.034" lon="15.253" intensity="8.0" name="Vallata"/>
  <station source="CFTI5med" netid="INTENSITY" code="IT_61178" lat="40.735" lon="15.058" intensity="7.5" name="Acerno"/>
  <station source="CFTI5med" netid="INTENSITY" code="IT_60653" lat="40.895" lon="15.369" intensity="7.5" name="Cairano"/>
  <station source="CFTI5med" netid="INTENSITY" code="IT_60773" lat="40.876" lon="15.187" intensity="7.5" name="Lioni"/>
  <station source="CFTI5med" netid="INTENSITY" code="IT_60962" lat="40.951" lon="15.164" intensity="7.5" name="Rocca San Felice"/>
  <station source="CFTI5med" netid="INTENSITY" code="IT_61007" lat="40.843" lon="15.370" intensity="7.5" name="Sant'Andrea di Conza"/>
  <station source="CFTI5med" netid="INTENSITY" code="IT_61034" lat="40.927" lon="15.177" intensity="7.5" name="Sant'Angelo dei Lombardi"/>
  <station source="CFTI5med" netid="INTENSITY" code="IT_61918" lat="40.807" lon="15.321" intensity="7.5" name="Santomenna"/>
  <station source="CFTI5med" netid="INTENSITY" code="IT_61115" lat="40.941" lon="15.115" intensity="7.5" name="Torella dei Lombardi"/>
  <station source="CFTI5med" netid="INTENSITY" code="IT_58912" lat="41.177" lon="14.367" intensity="5.0" name="Caiazzo"/>
  <station source="CFTI5med" netid="INTENSITY" code="IT_58924" lat="41.106" lon="14.214" intensity="5.0" name="Capua"/>
  <station source="CFTI5med" netid="INTENSITY" code="IT_60868" lat="40.999" lon="15.535" intensity="5.0" name="Monteverde"/>
  <station source="CFTI5med" netid="INTENSITY" code="IT_60182" lat="40.849" lon="14.250" intensity="5.0" name="Napoli"/>
  <station source="CFTI5med" netid="INTENSITY" code="IT_60214" lat="40.926" lon="14.529" intensity="5.0" name="Nola"/>
</stationlist>
