<?xml version="1.0" encoding="UTF-8"?>
<stationlist reference="DBMI15v4" created="20250808065340">
  <station source="SAKAL010" netid="INTENSITY" code="GR_01062" lat="36.808" lon="21.914" intensity="10.5" name="Charakopion"/>
  <station source="SAKAL010" netid="INTENSITY" code="GR_01055" lat="37.217" lon="21.717" intensity="10.0" name="Ayia Trias"/>
  <station source="SAKAL010" netid="INTENSITY" code="GR_01063" lat="36.850" lon="21.767" intensity="10.0" name="Dauti"/>
  <station source="SAKAL010" netid="INTENSITY" code="GR_01065" lat="37.033" lon="21.883" intensity="10.0" name="Dharas"/>
  <station source="SAKAL010" netid="INTENSITY" code="GR_00415" lat="37.150" lon="21.583" intensity="10.0" name="Filiatra"/>
  <station source="SAKAL010" netid="INTENSITY" code="GR_01069" lat="37.083" lon="21.667" intensity="10.0" name="Floka"/>
  <station source="SAKAL010" netid="INTENSITY" code="GR_01070" lat="36.917" lon="21.867" intensity="10.0" name="Gamvria"/>
  <station source="SAKAL010" netid="INTENSITY" code="GR_01075" lat="37.117" lon="21.583" intensity="10.0" name="Hag. Kyriaki"/>
  <station source="SAKAL010" netid="INTENSITY" code="GR_01076" lat="37.000" lon="21.717" intensity="10.0" name="Iklena or Iklaina"/>
  <station source="SAKAL010" netid="INTENSITY" code="GR_01088" lat="36.938" lon="22.202" intensity="10.0" name="Kambos"/>
  <station source="SAKAL010" netid="INTENSITY" code="GR_01094" lat="36.900" lon="21.817" intensity="10.0" name="Kato Ambelokipoi"/>
  <station source="SAKAL010" netid="INTENSITY" code="GR_01101" lat="36.967" lon="21.850" intensity="10.0" name="Khalabreza"/>
  <station source="SAKAL010" netid="INTENSITY" code="GR_01103" lat="36.950" lon="21.783" intensity="10.0" name="Khandrinos"/>
  <station source="SAKAL010" netid="INTENSITY" code="GR_01105" lat="36.833" lon="21.883" intensity="10.0" name="Khomateron"/>
  <station source="SAKAL010" netid="INTENSITY" code="GR_01123" lat="37.050" lon="21.717" intensity="10.0" name="Ligudista or Khora"/>
  <station source="SAKAL010" netid="INTENSITY" code="GR_01130" lat="37.067" lon="21.583" intensity="10.0" name="Marathopolis"/>
  <station source="SAKAL010" netid="INTENSITY" code="GR_01136" lat="37.050" lon="21.767" intensity="10.0" name="Metamorfosis"/>
  <station source="SAKAL010" netid="INTENSITY" code="GR_01139" lat="37.017" lon="21.883" intensity="10.0" name="Miska"/>
  <station source="SAKAL010" netid="INTENSITY" code="GR_01141" lat="37.050" lon="21.667" intensity="10.0" name="Mouzoutsa Levki"/>
  <station source="SAKAL010" netid="INTENSITY" code="GR_01162" lat="37.024" lon="21.727" intensity="10.0" name="Myrsinochori [Pispisia]"/>
  <station source="SAKAL010" netid="INTENSITY" code="GR_01151" lat="36.859" lon="21.905" intensity="10.0" name="Nerantza [Pasalina]"/>
  <station source="SAKAL010" netid="INTENSITY" code="GR_01147" lat="37.000" lon="21.683" intensity="10.0" name="Osmanaga"/>
  <station source="SAKAL010" netid="INTENSITY" code="GR_01149" lat="36.985" lon="21.879" intensity="10.0" name="Paniperi"/>
  <station source="SAKAL010" netid="INTENSITY" code="GR_01150" lat="37.013" lon="21.749" intensity="10.0" name="Pappoulia"/>
  <station source="SAKAL010" netid="INTENSITY" code="GR_01152" lat="37.050" lon="21.850" intensity="10.0" name="Pelekanadha"/>
  <station source="SAKAL010" netid="INTENSITY" code="GR_01153" lat="36.950" lon="21.926" intensity="10.0" name="Petalidi"/>
  <station source="SAKAL010" netid="INTENSITY" code="GR_01154" lat="36.817" lon="21.917" intensity="10.0" name="Petriadhes"/>
  <station source="SAKAL010" netid="INTENSITY" code="GR_01158" lat="36.950" lon="21.733" intensity="10.0" name="Pila"/>
  <station source="SAKAL010" netid="INTENSITY" code="GR_01161" lat="37.004" lon="21.686" intensity="10.0" name="Pisaskion"/>
  <station source="SAKAL010" netid="INTENSITY" code="GR_01163" lat="37.014" lon="21.727" intensity="10.0" name="Platanos"/>
  <station source="SAKAL010" netid="INTENSITY" code="GR_01166" lat="37.283" lon="21.717" intensity="10.0" name="Rakhai"/>
  <station source="SAKAL010" netid="INTENSITY" code="GR_01170" lat="37.000" lon="21.667" intensity="10.0" name="Romanos"/>
  <station source="SAKAL010" netid="INTENSITY" code="GR_01176" lat="36.783" lon="21.883" intensity="10.0" name="Saratzas"/>
  <station source="SAKAL010" netid="INTENSITY" code="GR_01178" lat="36.983" lon="21.717" intensity="10.0" name="Sgrapa"/>
  <station source="SAKAL010" netid="INTENSITY" code="GR_01179" lat="37.200" lon="22.017" intensity="10.0" name="Skala"/>
  <station source="SAKAL010" netid="INTENSITY" code="GR_01181" lat="37.233" lon="21.983" intensity="10.0" name="Solakion"/>
  <station source="SAKAL010" netid="INTENSITY" code="GR_01196" lat="37.122" lon="21.736" intensity="10.0" name="Stavros [Veristia]"/>
  <station source="SAKAL010" netid="INTENSITY" code="GR_01195" lat="36.983" lon="21.800" intensity="10.0" name="Velanidhia"/>
  <station source="SAKAL010" netid="INTENSITY" code="GR_01201" lat="36.950" lon="21.700" intensity="10.0" name="Yialova"/>
  <station source="SAKAL010" netid="INTENSITY" code="GR_01048" lat="36.917" lon="21.833" intensity="9.5" name="Ambelokipoi"/>
  <station source="SAKAL010" netid="INTENSITY" code="GR_01052" lat="36.933" lon="22.167" intensity="9.5" name="Ano Dholoi"/>
  <station source="SAKAL010" netid="INTENSITY" code="GR_01095" lat="36.936" lon="22.173" intensity="9.5" name="Kato Dholoi"/>
  <station source="SAKAL010" netid="INTENSITY" code="GR_01102" lat="37.183" lon="21.617" intensity="9.5" name="Khalazoni"/>
  <station source="SAKAL010" netid="INTENSITY" code="GR_01104" lat="36.867" lon="21.767" intensity="9.5" name="Khomatadha"/>
  <station source="SAKAL010" netid="INTENSITY" code="GR_01172" lat="36.950" lon="21.850" intensity="9.5" name="Romyrion"/>
  <station source="SAKAL010" netid="INTENSITY" code="GR_01203" lat="37.050" lon="22.183" intensity="9.5" name="Yiannitsa"/>
  <station source="SAKAL010" netid="INTENSITY" code="GR_01054" lat="37.033" lon="21.933" intensity="9.0" name="Avramion"/>
  <station source="SAKAL010" netid="INTENSITY" code="GR_01066" lat="37.600" lon="22.050" intensity="9.0" name="Dhimitsana"/>
  <station source="SAKAL010" netid="INTENSITY" code="GR_01080" lat="37.467" lon="21.650" intensity="9.0" name="Kakovatos"/>
  <station source="SAKAL010" netid="INTENSITY" code="GR_01083" lat="36.820" lon="21.700" intensity="9.0" name="Kalaphati"/>
  <station source="SAKAL010" netid="INTENSITY" code="GR_01087" lat="37.133" lon="21.967" intensity="9.0" name="Kalovrisi"/>
  <station source="SAKAL010" netid="INTENSITY" code="GR_00065" lat="36.796" lon="21.957" intensity="9.0" name="Koroni"/>
  <station source="SAKAL010" netid="INTENSITY" code="GR_01116" lat="37.445" lon="22.065" intensity="9.0" name="Kyparissia"/>
  <station source="SAKAL010" netid="INTENSITY" code="GR_01122" lat="37.150" lon="21.967" intensity="9.0" name="Lezi or Lambaina"/>
  <station source="SAKAL010" netid="INTENSITY" code="GR_02024" lat="37.051" lon="22.008" intensity="9.0" name="Messini"/>
  <station source="SAKAL010" netid="INTENSITY" code="GR_01137" lat="36.867" lon="21.833" intensity="9.0" name="Militsa (Edhothe)"/>
  <station source="SAKAL010" netid="INTENSITY" code="GR_01138" lat="36.867" lon="21.833" intensity="9.0" name="Militsa (Pera)"/>
  <station source="SAKAL010" netid="INTENSITY" code="GR_01190" lat="37.250" lon="22.010" intensity="9.0" name="Toskesi"/>
  <station source="SAKAL010" netid="INTENSITY" code="GR_01191" lat="37.033" lon="22.450" intensity="9.0" name="Tsausi"/>
  <station source="SAKAL010" netid="INTENSITY" code="GR_01198" lat="37.033" lon="21.783" intensity="9.0" name="Vlakhopoulon"/>
  <station source="SAKAL010" netid="INTENSITY" code="GR_01204" lat="37.483" lon="21.650" intensity="9.0" name="Zakharo"/>
  <station source="SAKAL010" netid="INTENSITY" code="GR_01049" lat="37.017" lon="21.967" intensity="8.5" name="Analipsis"/>
  <station source="SAKAL010" netid="INTENSITY" code="GR_01599" lat="37.067" lon="21.633" intensity="8.5" name="Gargalianoi"/>
  <station source="SAKAL010" netid="INTENSITY" code="GR_01090" lat="37.400" lon="21.733" intensity="8.5" name="Kariai"/>
  <station source="SAKAL010" netid="INTENSITY" code="GR_01091" lat="37.483" lon="22.033" intensity="8.5" name="Karitaina"/>
  <station source="SAKAL010" netid="INTENSITY" code="GR_01093" lat="37.417" lon="22.100" intensity="8.5" name="Kasimi"/>
  <station source="SAKAL010" netid="INTENSITY" code="GR_01096" lat="37.433" lon="21.767" intensity="8.5" name="Kato Figalia"/>
  <station source="SAKAL010" netid="INTENSITY" code="GR_01140" lat="37.100" lon="21.717" intensity="8.5" name="Mouzakion"/>
  <station source="SAKAL010" netid="INTENSITY" code="GR_01148" lat="36.900" lon="21.850" intensity="8.5" name="Panaiika"/>
  <station source="SAKAL010" netid="INTENSITY" code="GR_01159" lat="36.917" lon="21.700" intensity="8.5" name="Pilos"/>
  <station source="SAKAL010" netid="INTENSITY" code="GR_01167" lat="37.212" lon="21.855" intensity="8.5" name="Revmatia"/>
  <station source="SAKAL010" netid="INTENSITY" code="GR_01199" lat="36.833" lon="21.917" intensity="8.5" name="Vounaria"/>
  <station source="SAKAL010" netid="INTENSITY" code="GR_01202" lat="37.033" lon="22.133" intensity="8.5" name="Yianitsanika or Farai"/>
  <station source="SAKAL010" netid="INTENSITY" code="GR_01044" lat="37.250" lon="22.000" intensity="8.0" name="Alitselepi (near Meligala)"/>
  <station source="SAKAL010" netid="INTENSITY" code="GR_01053" lat="37.133" lon="21.983" intensity="8.0" name="Aristodhimion"/>
  <station source="SAKAL010" netid="INTENSITY" code="GR_01056" lat="37.417" lon="21.700" intensity="8.0" name="Ayios Ilias"/>
  <station source="SAKAL010" netid="INTENSITY" code="GR_01058" lat="37.250" lon="21.700" intensity="8.0" name="Blemenianoi"/>
  <station source="SAKAL010" netid="INTENSITY" code="GR_01064" lat="37.383" lon="22.083" intensity="8.0" name="Delihasani or Apidhista"/>
  <station source="SAKAL010" netid="INTENSITY" code="GR_01144" lat="37.117" lon="21.967" intensity="8.0" name="Eva [Naziri]"/>
  <station source="SAKAL010" netid="INTENSITY" code="GR_01067" lat="37.200" lon="21.617" intensity="8.0" name="Farakladha"/>
  <station source="SAKAL010" netid="INTENSITY" code="GR_01068" lat="37.100" lon="21.767" intensity="8.0" name="Flesias"/>
  <station source="SAKAL010" netid="INTENSITY" code="GR_01071" lat="37.440" lon="22.430" intensity="8.0" name="Garantza"/>
  <station source="SAKAL010" netid="INTENSITY" code="GR_01108" lat="37.150" lon="21.833" intensity="8.0" name="Kinigos"/>
  <station source="SAKAL010" netid="INTENSITY" code="GR_01169" lat="37.576" lon="21.616" intensity="8.0" name="Krounoi [Risovo]"/>
  <station source="SAKAL010" netid="INTENSITY" code="GR_01125" lat="37.267" lon="22.000" intensity="8.0" name="Loutron"/>
  <station source="SAKAL010" netid="INTENSITY" code="GR_01146" lat="37.150" lon="22.233" intensity="8.0" name="Nedhousa"/>
  <station source="SAKAL010" netid="INTENSITY" code="GR_00109" lat="38.244" lon="21.734" intensity="8.0" name="Patras"/>
  <station source="SAKAL010" netid="INTENSITY" code="GR_00121" lat="37.672" lon="21.441" intensity="8.0" name="Pyrgos"/>
  <station source="SAKAL010" netid="INTENSITY" code="GR_01165" lat="37.074" lon="21.693" intensity="8.0" name="Pyrgos"/>
  <station source="SAKAL010" netid="INTENSITY" code="GR_01175" lat="37.100" lon="21.750" intensity="8.0" name="Sapriki"/>
  <station source="SAKAL010" netid="INTENSITY" code="GR_01177" lat="36.790" lon="22.900" intensity="8.0" name="Selitsa"/>
  <station source="SAKAL010" netid="INTENSITY" code="GR_01183" lat="37.217" lon="21.977" intensity="8.0" name="Spanokhori or Spanokhorion"/>
  <station source="SAKAL010" netid="INTENSITY" code="GR_01193" lat="36.933" lon="22.200" intensity="8.0" name="Varousia"/>
  <station source="SAKAL010" netid="INTENSITY" code="GR_01042" lat="36.917" lon="21.900" intensity="7.5" name="Akhladhokhorion"/>
  <station source="SAKAL010" netid="INTENSITY" code="GR_01051" lat="37.117" lon="21.933" intensity="7.5" name="Androusa"/>
  <station source="SAKAL010" netid="INTENSITY" code="GR_01362" lat="37.150" lon="22.033" intensity="7.5" name="Arfara"/>
  <station source="SAKAL010" netid="INTENSITY" code="GR_01059" lat="36.950" lon="22.233" intensity="7.5" name="Brinda"/>
  <station source="SAKAL010" netid="INTENSITY" code="GR_00053" lat="37.044" lon="22.116" intensity="7.5" name="Kalamai"/>
  <station source="SAKAL010" netid="INTENSITY" code="GR_01085" lat="37.467" lon="21.700" intensity="7.5" name="Kalidhona"/>
  <station source="SAKAL010" netid="INTENSITY" code="GR_01099" lat="36.717" lon="22.400" intensity="7.5" name="Kelefa"/>
  <station source="SAKAL010" netid="INTENSITY" code="GR_01109" lat="36.917" lon="21.850" intensity="7.5" name="Kokkinon"/>
  <station source="SAKAL010" netid="INTENSITY" code="GR_01187" lat="37.107" lon="21.832" intensity="7.5" name="Koutifaris"/>
  <station source="SAKAL010" netid="INTENSITY" code="GR_00598" lat="37.250" lon="21.667" intensity="7.5" name="Kyparissia"/>
  <station source="SAKAL010" netid="INTENSITY" code="GR_01118" lat="36.817" lon="21.800" intensity="7.5" name="Lakhanada"/>
  <station source="SAKAL010" netid="INTENSITY" code="GR_01124" lat="37.050" lon="21.950" intensity="7.5" name="Likotrafos"/>
  <station source="SAKAL010" netid="INTENSITY" code="GR_01132" lat="36.933" lon="21.883" intensity="7.5" name="Mathia"/>
  <station source="SAKAL010" netid="INTENSITY" code="GR_01133" lat="37.179" lon="21.924" intensity="7.5" name="Mavrommati"/>
  <station source="SAKAL010" netid="INTENSITY" code="GR_01134" lat="37.064" lon="21.996" intensity="7.5" name="Mavrommati"/>
  <station source="SAKAL010" netid="INTENSITY" code="GR_01155" lat="36.983" lon="21.667" intensity="7.5" name="Petrochori"/>
  <station source="SAKAL010" netid="INTENSITY" code="GR_01180" lat="37.683" lon="21.367" intensity="7.5" name="Skourokhorion"/>
  <station source="SAKAL010" netid="INTENSITY" code="GR_01185" lat="37.067" lon="21.750" intensity="7.5" name="Stilianos"/>
  <station source="SAKAL010" netid="INTENSITY" code="GR_01188" lat="37.513" lon="21.961" intensity="7.5" name="Thissoa"/>
  <station source="SAKAL010" netid="INTENSITY" code="GR_01189" lat="37.417" lon="22.083" intensity="7.5" name="Thoknia"/>
  <station source="SAKAL010" netid="INTENSITY" code="GR_01192" lat="36.867" lon="21.717" intensity="7.5" name="Varakai"/>
  <station source="SAKAL010" netid="INTENSITY" code="GR_01045" lat="37.567" lon="21.583" intensity="7.0" name="Alitselepi (near Zacharo)"/>
  <station source="SAKAL010" netid="INTENSITY" code="GR_01050" lat="37.483" lon="21.900" intensity="7.0" name="Andritsaina"/>
  <station source="SAKAL010" netid="INTENSITY" code="GR_01360" lat="36.667" lon="22.383" intensity="7.0" name="Areopolis"/>
  <station source="SAKAL010" netid="INTENSITY" code="GR_01060" lat="37.583" lon="21.800" intensity="7.0" name="Burnazi"/>
  <station source="SAKAL010" netid="INTENSITY" code="GR_01098" lat="37.196" lon="21.860" intensity="7.0" name="Kafalinos"/>
  <station source="SAKAL010" netid="INTENSITY" code="GR_01086" lat="37.917" lon="21.533" intensity="7.0" name="Kalivakia"/>
  <station source="SAKAL010" netid="INTENSITY" code="GR_01089" lat="36.883" lon="22.233" intensity="7.0" name="Kardhamili"/>
  <station source="SAKAL010" netid="INTENSITY" code="GR_01092" lat="37.083" lon="21.983" intensity="7.0" name="Karteroli"/>
  <station source="SAKAL010" netid="INTENSITY" code="GR_01106" lat="37.383" lon="22.083" intensity="7.0" name="Khoremis"/>
  <station source="SAKAL010" netid="INTENSITY" code="GR_01107" lat="36.900" lon="21.750" intensity="7.0" name="Kinigos"/>
  <station source="SAKAL010" netid="INTENSITY" code="GR_01115" lat="37.467" lon="21.883" intensity="7.0" name="Kuphopulon"/>
  <station source="SAKAL010" netid="INTENSITY" code="GR_01129" lat="37.267" lon="21.967" intensity="7.0" name="Mantzari"/>
  <station source="SAKAL010" netid="INTENSITY" code="GR_01135" lat="37.933" lon="22.183" intensity="7.0" name="Mazi"/>
  <station source="SAKAL010" netid="INTENSITY" code="GR_01993" lat="37.417" lon="22.117" intensity="7.0" name="Megalopolis"/>
  <station source="SAKAL010" netid="INTENSITY" code="GR_00088" lat="36.820" lon="21.706" intensity="7.0" name="Methoni"/>
  <station source="SAKAL010" netid="INTENSITY" code="GR_01142" lat="37.500" lon="21.617" intensity="7.0" name="Mundraza"/>
  <station source="SAKAL010" netid="INTENSITY" code="GR_01100" lat="37.429" lon="22.110" intensity="7.0" name="Plaka [Kerkezi]"/>
  <station source="SAKAL010" netid="INTENSITY" code="GR_01171" lat="37.733" lon="21.467" intensity="7.0" name="Romesi"/>
  <station source="SAKAL010" netid="INTENSITY" code="GR_01184" lat="37.383" lon="21.917" intensity="7.0" name="Stasimon"/>
  <station source="SAKAL010" netid="INTENSITY" code="GR_01186" lat="36.800" lon="21.800" intensity="7.0" name="Taverna"/>
  <station source="SAKAL010" netid="INTENSITY" code="GR_00971" lat="37.513" lon="22.374" intensity="7.0" name="Tripolis"/>
  <station source="SAKAL010" netid="INTENSITY" code="GR_01043" lat="37.117" lon="21.767" intensity="6.5" name="Alikutuzi"/>
  <station source="SAKAL010" netid="INTENSITY" code="GR_00360" lat="39.624" lon="19.920" intensity="6.5" name="Corfu"/>
  <station source="SAKAL010" netid="INTENSITY" code="GR_01072" lat="37.133" lon="22.000" intensity="6.5" name="Gliata"/>
  <station source="SAKAL010" netid="INTENSITY" code="GR_01078" lat="36.867" lon="21.700" intensity="6.5" name="Kainourion Khori"/>
  <station source="SAKAL010" netid="INTENSITY" code="GR_01079" lat="37.400" lon="21.933" intensity="6.5" name="Kakaletrion"/>
  <station source="SAKAL010" netid="INTENSITY" code="GR_00477" lat="38.032" lon="22.111" intensity="6.5" name="Kalavrita"/>
  <station source="SAKAL010" netid="INTENSITY" code="GR_01114" lat="37.770" lon="21.610" intensity="6.5" name="Kriekukion"/>
  <station source="SAKAL010" netid="INTENSITY" code="GR_01127" lat="36.932" lon="22.192" intensity="6.5" name="Malta"/>
  <station source="SAKAL010" netid="INTENSITY" code="GR_01131" lat="37.400" lon="21.917" intensity="6.5" name="Marina"/>
  <station source="SAKAL010" netid="INTENSITY" code="GR_01173" lat="37.350" lon="22.183" intensity="6.5" name="Routsion"/>
  <station source="SAKAL010" netid="INTENSITY" code="GR_01200" lat="37.183" lon="22.050" intensity="6.5" name="Vromovrysi"/>
  <station source="SAKAL010" netid="INTENSITY" code="GR_01046" lat="37.000" lon="22.150" intensity="6.0" name="Almiron"/>
  <station source="SAKAL010" netid="INTENSITY" code="GR_01047" lat="37.433" lon="21.950" intensity="6.0" name="Ambeliona"/>
  <station source="SAKAL010" netid="INTENSITY" code="GR_01119" lat="37.850" lon="21.800" intensity="6.0" name="Lambia"/>
  <station source="SAKAL010" netid="INTENSITY" code="GR_01126" lat="37.617" lon="21.600" intensity="6.0" name="Makrisia"/>
  <station source="SAKAL010" netid="INTENSITY" code="GR_01128" lat="37.083" lon="21.767" intensity="6.0" name="Maniaki"/>
  <station source="SAKAL010" netid="INTENSITY" code="GR_00465" lat="37.900" lon="23.011" intensity="6.0" name="Palaio Kalamaki"/>
  <station source="SAKAL010" netid="INTENSITY" code="GR_01156" lat="37.497" lon="21.863" intensity="6.0" name="Phanari"/>
  <station source="SAKAL010" netid="INTENSITY" code="GR_01157" lat="36.867" lon="21.750" intensity="6.0" name="Pidhasos"/>
  <station source="SAKAL010" netid="INTENSITY" code="GR_00115" lat="38.956" lon="20.754" intensity="6.0" name="Preveza"/>
  <station source="SAKAL010" netid="INTENSITY" code="GR_01168" lat="36.850" lon="21.750" intensity="6.0" name="Ripaina"/>
  <station source="SAKAL010" netid="INTENSITY" code="GR_01182" lat="36.967" lon="22.200" intensity="6.0" name="Sotirianika"/>
  <station source="SAKAL010" netid="INTENSITY" code="GR_01197" lat="37.750" lon="21.467" intensity="6.0" name="Vitinaiika"/>
  <station source="SAKAL010" netid="INTENSITY" code="GR_01057" lat="37.450" lon="21.950" intensity="5.5" name="Ayios Sostis"/>
  <station source="SAKAL010" netid="INTENSITY" code="GR_00064" lat="37.939" lon="22.927" intensity="5.5" name="Corinth"/>
  <station source="SAKAL010" netid="INTENSITY" code="AL_00030" lat="40.080" lon="20.148" intensity="5.5" name="Gjirokastër"/>
  <station source="SAKAL010" netid="INTENSITY" code="GR_01073" lat="37.567" lon="21.700" intensity="5.5" name="Greka"/>
  <station source="SAKAL010" netid="INTENSITY" code="GR_01074" lat="36.817" lon="21.833" intensity="5.5" name="Grizokambos"/>
  <station source="SAKAL010" netid="INTENSITY" code="GR_01097" lat="37.450" lon="22.100" intensity="5.5" name="Katsimbalis"/>
  <station source="SAKAL010" netid="INTENSITY" code="GR_01113" lat="37.592" lon="21.620" intensity="5.5" name="Krestena"/>
  <station source="SAKAL010" netid="INTENSITY" code="GR_01145" lat="38.017" lon="22.750" intensity="5.5" name="Neapolis"/>
  <station source="SAKAL010" netid="INTENSITY" code="GR_01164" lat="37.133" lon="21.750" intensity="5.5" name="Potamia"/>
  <station source="SAKAL010" netid="INTENSITY" code="GR_01174" lat="37.483" lon="21.933" intensity="5.5" name="Rovia"/>
  <station source="SAKAL010" netid="INTENSITY" code="GR_01194" lat="36.767" lon="21.900" intensity="5.5" name="Vasilitsion"/>
  <station source="SAKAL010" netid="INTENSITY" code="GR_02614" lat="37.567" lon="21.633" intensity="5.5" name="Vrina"/>
  <station source="SAKAL010" netid="INTENSITY" code="GR_00312" lat="37.976" lon="23.733" intensity="5.0" name="Athens"/>
  <station source="SAKAL010" netid="INTENSITY" code="EG_00005" lat="30.050" lon="31.250" intensity="5.0" name="Cairo"/>
  <station source="SAKAL010" netid="INTENSITY" code="GR_00049" lat="39.667" lon="20.850" intensity="5.0" name="Ioánnina"/>
  <station source="SAKAL010" netid="INTENSITY" code="GR_00012" lat="38.179" lon="20.487" intensity="5.0" name="Kephalonia (Argostoli)"/>
  <station source="SAKAL010" netid="INTENSITY" code="GR_00072" lat="36.149" lon="22.988" intensity="5.0" name="Kythira"/>
  <station source="SAKAL010" netid="INTENSITY" code="GR_00073" lat="38.900" lon="22.433" intensity="5.0" name="Lamia"/>
  <station source="SAKAL010" netid="INTENSITY" code="IT_62720" lat="40.353" lon="18.172" intensity="5.0" name="Lecce"/>
  <station source="SAKAL010" netid="INTENSITY" code="GR_02020" lat="38.369" lon="21.429" intensity="5.0" name="Mesolongi"/>
  <station source="SAKAL010" netid="INTENSITY" code="GR_00141" lat="40.636" lon="22.944" intensity="5.0" name="Thessaloniki"/>
  <station source="SAKAL010" netid="INTENSITY" code="IT_32084" lat="45.650" lon="13.772" intensity="5.0" name="Trieste"/>
  <station source="SAKAL010" netid="INTENSITY" code="GR_01320" lat="37.833" lon="24.933" intensity="4.5" name="Andros"/>
  <station source="SAKAL010" netid="INTENSITY" code="GR_00075" lat="38.834" lon="20.708" intensity="4.5" name="Lefkada"/>
  <station source="SAKAL010" netid="INTENSITY" code="GR_02076" lat="37.567" lon="22.800" intensity="4.5" name="Nafplion"/>
  <station source="SAKAL010" netid="INTENSITY" code="GR_00264" lat="37.450" lon="24.936" intensity="4.5" name="Syros"/>
  <station source="SAKAL010" netid="INTENSITY" code="GR_00957" lat="37.538" lon="25.164" intensity="4.5" name="Tinos"/>
  <station source="SAKAL010" netid="INTENSITY" code="GR_01007" lat="39.367" lon="22.933" intensity="4.5" name="Volos"/>
  <station source="SAKAL010" netid="INTENSITY" code="GR_00074" lat="39.633" lon="22.417" intensity="3.9" name="Larisa"/>
  <station source="SAKAL010" netid="INTENSITY" code="GR_00051" lat="35.350" lon="25.117" intensity="3.5" name="Iraklio"/>
  <station source="SAKAL010" netid="INTENSITY" code="GR_00919" lat="37.074" lon="22.430" intensity="3.5" name="Sparti"/>
  <station source="SAKAL010" netid="INTENSITY" code="GR_00022" lat="38.467" lon="23.600" intensity="3.0" name="Chalkis"/>
  <station source="SAKAL010" netid="INTENSITY" code="TR_00078" lat="41.012" lon="28.976" intensity="3.0" name="Istanbul"/>
  <station source="SAKAL010" netid="INTENSITY" code="GR_00139" lat="36.418" lon="25.432" intensity="2.5" name="Thira"/>
</stationlist>
