<?xml version="1.0" encoding="UTF-8"?>
<stationlist reference="DBMI15v4" created="20250808064908">
  <station source="CFTI5med" netid="INTENSITY" code="IT_63734" lat="39.351" lon="16.288" intensity="10.0" name="Castiglione Cosentino"/>
  <station source="CFTI5med" netid="INTENSITY" code="IT_64506" lat="39.310" lon="16.286" intensity="9.0" name="Motta"/>
  <station source="CFTI5med" netid="INTENSITY" code="IT_64505" lat="39.303" lon="16.288" intensity="9.0" name="Rovella"/>
  <station source="CFTI5med" netid="INTENSITY" code="IT_64407" lat="39.339" lon="16.302" intensity="9.0" name="San Benedetto in Guarano"/>
  <station source="CFTI5med" netid="INTENSITY" code="IT_64408" lat="39.342" lon="16.311" intensity="9.0" name="San Pietro in Guarano"/>
  <station source="CFTI5med" netid="INTENSITY" code="IT_63703" lat="39.281" lon="16.331" intensity="8.0" name="Casole Bruzio"/>
  <station source="CFTI5med" netid="INTENSITY" code="IT_63872" lat="39.303" lon="16.252" intensity="8.0" name="Cosenza"/>
  <station source="CFTI5med" netid="INTENSITY" code="IT_64047" lat="39.319" lon="16.312" intensity="8.0" name="Lappano"/>
  <station source="CFTI5med" netid="INTENSITY" code="IT_64265" lat="39.331" lon="16.183" intensity="8.0" name="Rende"/>
  <station source="CFTI5med" netid="INTENSITY" code="IT_64280" lat="39.399" lon="16.288" intensity="8.0" name="Rose"/>
  <station source="CFTI5med" netid="INTENSITY" code="IT_64507" lat="39.310" lon="16.291" intensity="8.0" name="Zumpano"/>
  <station source="CFTI5med" netid="INTENSITY" code="IT_63931" lat="39.237" lon="16.252" intensity="7.0" name="Dipignano"/>
  <station source="CFTI5med" netid="INTENSITY" code="IT_63905" lat="39.251" lon="16.290" intensity="7.0" name="Donnici Inferiore"/>
  <station source="CFTI5med" netid="INTENSITY" code="IT_63912" lat="39.252" lon="16.301" intensity="7.0" name="Donnici Superiore"/>
  <station source="CFTI5med" netid="INTENSITY" code="IT_64078" lat="39.446" lon="16.288" intensity="7.0" name="Luzzi"/>
  <station source="CFTI5med" netid="INTENSITY" code="IT_64195" lat="39.228" lon="16.265" intensity="7.0" name="Paterno Calabro"/>
  <station source="CFTI5med" netid="INTENSITY" code="IT_64208" lat="39.233" lon="16.325" intensity="7.0" name="Piane Crati"/>
  <station source="CFTI5med" netid="INTENSITY" code="IT_63916" lat="39.266" lon="16.295" intensity="7.0" name="Sant'Ippolito"/>
  <station source="CFTI5med" netid="INTENSITY" code="IT_64103" lat="39.313" lon="16.172" intensity="6.5" name="Marano Marchesato"/>
  <station source="CFTI5med" netid="INTENSITY" code="IT_64320" lat="39.308" lon="16.321" intensity="6.5" name="Rovito"/>
  <station source="CFTI5med" netid="INTENSITY" code="IT_63660" lat="39.513" lon="16.285" intensity="6.0" name="Bisignano"/>
  <station source="CFTI5med" netid="INTENSITY" code="IT_63705" lat="39.784" lon="16.318" intensity="6.0" name="Cassano allo Ionio"/>
  <station source="CFTI5med" netid="INTENSITY" code="IT_63747" lat="39.307" lon="16.194" intensity="6.0" name="Castrolibero"/>
  <station source="CFTI5med" netid="INTENSITY" code="IT_63852" lat="39.596" lon="16.519" intensity="6.0" name="Corigliano Calabro"/>
  <station source="CFTI5med" netid="INTENSITY" code="IT_64327" lat="39.580" lon="16.381" intensity="6.0" name="Macchia Albanese"/>
  <station source="CFTI5med" netid="INTENSITY" code="IT_64178" lat="39.360" lon="16.041" intensity="6.0" name="Paola"/>
  <station source="CFTI5med" netid="INTENSITY" code="IT_64331" lat="39.568" lon="16.362" intensity="6.0" name="San Demetrio Corone"/>
  <station source="CFTI5med" netid="INTENSITY" code="IT_64364" lat="39.666" lon="16.295" intensity="6.0" name="San Lorenzo del Vallo"/>
  <station source="CFTI5med" netid="INTENSITY" code="IT_64417" lat="39.546" lon="16.329" intensity="6.0" name="Santa Sofia d'Epiro"/>
  <station source="CFTI5med" netid="INTENSITY" code="IT_64448" lat="39.670" lon="16.311" intensity="6.0" name="Spezzano Albanese"/>
  <station source="CFTI5med" netid="INTENSITY" code="IT_64470" lat="39.617" lon="16.272" intensity="6.0" name="Tarsia"/>
  <station source="CFTI5med" netid="INTENSITY" code="IT_64471" lat="39.657" lon="16.340" intensity="6.0" name="Terranova da Sibari"/>
  <station source="CFTI5med" netid="INTENSITY" code="IT_65131" lat="38.947" lon="16.509" intensity="5.0" name="Tiriolo"/>
  <station source="CFTI5med" netid="INTENSITY" code="IT_64360" lat="39.888" lon="16.329" intensity="1.8" name="San Lorenzo Bellizzi"/>
  <station source="CFTI5med" netid="INTENSITY" code="IT_65695" lat="38.108" lon="15.647" intensity="1.0" name="Reggio di Calabria"/>
  <station source="CFTI5med" netid="INTENSITY" code="IT_65154" lat="38.673" lon="16.103" intensity="1.0" name="Vibo Valentia"/>
</stationlist>
