<?xml version="1.0" encoding="UTF-8"?>
<stationlist reference="DBMI15v4" created="20250808065341">
  <station source="TAXE003" netid="INTENSITY" code="GR_00556" lat="39.200" lon="26.017" intensity="10.0" name="Khidhira"/>
  <station source="TAXE003" netid="INTENSITY" code="GR_00206" lat="39.167" lon="26.067" intensity="9.0" name="Agra"/>
  <station source="TAXE003" netid="INTENSITY" code="GR_00252" lat="39.233" lon="25.983" intensity="9.0" name="Andissa"/>
  <station source="TAXE003" netid="INTENSITY" code="GR_00405" lat="39.167" lon="25.933" intensity="9.0" name="Eresos"/>
  <station source="TAXE003" netid="INTENSITY" code="GR_00699" lat="39.133" lon="26.000" intensity="9.0" name="Mesotopos"/>
  <station source="TAXE003" netid="INTENSITY" code="GR_00867" lat="39.217" lon="26.033" intensity="9.0" name="Revma"/>
  <station source="TAXE003" netid="INTENSITY" code="GR_00896" lat="39.217" lon="25.850" intensity="9.0" name="Sigrion"/>
  <station source="TAXE003" netid="INTENSITY" code="GR_00901" lat="39.133" lon="25.933" intensity="9.0" name="Skala Eresou"/>
  <station source="TAXE003" netid="INTENSITY" code="GR_00981" lat="39.233" lon="26.000" intensity="9.0" name="Tzithra"/>
  <station source="TAXE003" netid="INTENSITY" code="GR_00481" lat="39.233" lon="26.207" intensity="8.0" name="Kalloni"/>
  <station source="TAXE003" netid="INTENSITY" code="GR_00093" lat="39.367" lon="26.167" intensity="8.0" name="Mithymna"/>
  <station source="TAXE003" netid="INTENSITY" code="GR_00929" lat="39.317" lon="26.217" intensity="8.0" name="Stipsi"/>
  <station source="TAXE003" netid="INTENSITY" code="GR_00995" lat="39.225" lon="26.051" intensity="8.0" name="Vatoussa"/>
  <station source="TAXE003" netid="INTENSITY" code="GR_00789" lat="39.169" lon="26.140" intensity="7.0" name="Parakila"/>
  <station source="TAXE003" netid="INTENSITY" code="GR_00836" lat="38.983" lon="26.383" intensity="7.0" name="Playia"/>
  <station source="TAXE003" netid="INTENSITY" code="GR_00838" lat="38.983" lon="26.367" intensity="7.0" name="Plomarion"/>
  <station source="TAXE003" netid="INTENSITY" code="GR_00903" lat="39.267" lon="26.067" intensity="7.0" name="Skalokhorion"/>
  <station source="TAXE003" netid="INTENSITY" code="GR_01020" lat="39.020" lon="26.200" intensity="7.0" name="Vrisa"/>
  <station source="TAXE003" netid="INTENSITY" code="GR_00100" lat="39.106" lon="26.557" intensity="6.0" name="Mytilini"/>
  <station source="TAXE003" netid="INTENSITY" code="TR_00161" lat="39.314" lon="26.693" intensity="5.0" name="Ayvalik"/>
  <station source="TAXE003" netid="INTENSITY" code="GR_00024" lat="38.367" lon="26.133" intensity="4.5" name="Chios"/>
  <station source="TAXE003" netid="INTENSITY" code="GR_00126" lat="37.757" lon="26.976" intensity="4.5" name="Samos"/>
  <station source="TAXE003" netid="INTENSITY" code="TR_00079" lat="38.416" lon="27.137" intensity="4.0" name="Izmir"/>
  <station source="TAXE003" netid="INTENSITY" code="GR_00312" lat="37.976" lon="23.733" intensity="3.5" name="Athens"/>
  <station source="TAXE003" netid="INTENSITY" code="TR_00035" lat="40.156" lon="26.411" intensity="3.5" name="Çanakkale"/>
  <station source="TAXE003" netid="INTENSITY" code="TR_00078" lat="41.012" lon="28.976" intensity="3.5" name="Istanbul"/>
  <station source="TAXE003" netid="INTENSITY" code="TR_00286" lat="37.215" lon="28.365" intensity="3.5" name="Mugla"/>
  <station source="TAXE003" netid="INTENSITY" code="GR_00125" lat="36.430" lon="28.230" intensity="3.5" name="Ródos"/>
  <station source="TAXE003" netid="INTENSITY" code="TR_00128" lat="40.983" lon="27.517" intensity="3.5" name="Tekirdag"/>
</stationlist>
