<?xml version="1.0" encoding="UTF-8"?>
<stationlist reference="DBMI15v4" created="20250808065341">
  <station source="UNITH003" netid="INTENSITY" code="GR_00933" lat="38.070" lon="22.650" intensity="8.0" name="Sykea"/>
  <station source="UNITH003" netid="INTENSITY" code="GR_00946" lat="38.020" lon="22.670" intensity="8.0" name="Thaleron"/>
  <station source="UNITH003" netid="INTENSITY" code="GR_00156" lat="38.077" lon="22.633" intensity="8.0" name="Xylokastro"/>
  <station source="UNITH003" netid="INTENSITY" code="GR_01477" lat="37.984" lon="22.534" intensity="7.0" name="Diminio"/>
  <station source="UNITH003" netid="INTENSITY" code="GR_02949" lat="38.012" lon="22.747" intensity="7.0" name="Kiaton"/>
  <station source="UNITH003" netid="INTENSITY" code="GR_01805" lat="37.970" lon="22.770" intensity="7.0" name="Kokkonion"/>
  <station source="UNITH003" netid="INTENSITY" code="GR_03136" lat="38.020" lon="22.950" intensity="7.0" name="Perachora"/>
  <station source="UNITH003" netid="INTENSITY" code="GR_02582" lat="37.983" lon="22.750" intensity="7.0" name="Velon"/>
  <station source="UNITH003" netid="INTENSITY" code="GR_02953" lat="37.520" lon="22.720" intensity="5.0" name="Kiverion"/>
</stationlist>
