<?xml version="1.0" encoding="UTF-8"?>
<stationlist reference="DBMI15v4" created="20250808063616">
  <station source="SUKO975" netid="INTENSITY" code="AL_00032" lat="40.475" lon="19.938" intensity="8.0" name="Izvor"/>
  <station source="SUKO975" netid="INTENSITY" code="AL_00038" lat="40.529" lon="19.749" intensity="8.0" name="Klos"/>
  <station source="SUKO975" netid="INTENSITY" code="AL_00054" lat="40.555" lon="19.892" intensity="8.0" name="Osmënzezë"/>
  <station source="SUKO975" netid="INTENSITY" code="AL_00057" lat="40.500" lon="19.935" intensity="8.0" name="Rabije"/>
  <station source="SUKO975" netid="INTENSITY" code="AL_00007" lat="40.296" lon="20.019" intensity="7.0" name="Tepelenë"/>
  <station source="SUKO975" netid="INTENSITY" code="AL_00027" lat="40.727" lon="19.562" intensity="6.5" name="Fier"/>
  <station source="SUKO975" netid="INTENSITY" code="AL_00044" lat="40.868" lon="19.713" intensity="6.5" name="Krutje"/>
</stationlist>
