<?xml version="1.0" encoding="UTF-8"?>
<stationlist reference="DBMI15v4" created="20250808064905">
  <station source="CAMAL011b" netid="INTENSITY" code="IT_62211" lat="41.706" lon="15.959" intensity="7.5" name="Monte Sant'Angelo"/>
  <station source="CAMAL011b" netid="INTENSITY" code="IT_62258" lat="41.882" lon="16.180" intensity="7.5" name="Vieste"/>
  <station source="CAMAL011b" netid="INTENSITY" code="IT_62194" lat="41.508" lon="15.335" intensity="6.5" name="Lucera"/>
  <station source="CAMAL011b" netid="INTENSITY" code="IT_62243" lat="41.685" lon="15.381" intensity="6.5" name="San Severo"/>
  <station source="CAMAL011b" netid="INTENSITY" code="IT_62246" lat="41.806" lon="15.160" intensity="6.5" name="Serracapriola"/>
</stationlist>
