<?xml version="1.0" encoding="UTF-8"?>
<stationlist reference="DBMI15v4" created="20250807210909">
  <station source="SISFR016" netid="INTENSITY" code="FR_00049" lat="45.133" lon="6.033" intensity="7.0" name="ALLEMOND"/>
  <station source="SISFR016" netid="INTENSITY" code="FR_10582" lat="45.283" lon="6.350" intensity="7.0" name="SAINT-JEAN-DE-MAURIENNE"/>
  <station source="SISFR016" netid="INTENSITY" code="FR_00488" lat="45.567" lon="5.917" intensity="6.5" name="CHAMBERY"/>
  <station source="SISFR016" netid="INTENSITY" code="FR_00031" lat="45.700" lon="5.917" intensity="6.0" name="AIX-LES-BAINS"/>
  <station source="SISFR016" netid="INTENSITY" code="FR_01657" lat="45.483" lon="6.533" intensity="6.0" name="MOUTIERS"/>
  <station source="SISFR016" netid="INTENSITY" code="FR_00014" lat="45.550" lon="6.300" intensity="5.5" name="AIGUEBELLE"/>
  <station source="SISFR016" netid="INTENSITY" code="FR_00050" lat="45.400" lon="6.067" intensity="5.5" name="ALLEVARD"/>
  <station source="SISFR016" netid="INTENSITY" code="FR_04202" lat="45.450" lon="6.567" intensity="5.5" name="BRIDES-LES-BAINS"/>
  <station source="SISFR016" netid="INTENSITY" code="FR_11021" lat="45.467" lon="6.533" intensity="5.5" name="SALINS-LES-THERMES"/>
  <station source="SISFR016" netid="INTENSITY" code="FR_11783" lat="45.150" lon="5.833" intensity="5.5" name="URIAGE (ST-MARTIN-D'URIAGE)"/>
  <station source="SISFR016" netid="INTENSITY" code="FR_12034" lat="46.167" lon="4.533" intensity="5.5" name="VERNAY"/>
  <station source="SISFR016" netid="INTENSITY" code="FR_00035" lat="45.667" lon="6.383" intensity="5.0" name="ALBERTVILLE"/>
  <station source="SISFR016" netid="INTENSITY" code="FR_04217" lat="46.167" lon="5.550" intensity="5.0" name="BRION"/>
  <station source="SISFR016" netid="INTENSITY" code="CH_00629" lat="46.483" lon="7.133" intensity="5.0" name="CHATEAU-D'OEX"/>
  <station source="SISFR016" netid="INTENSITY" code="FR_04986" lat="46.383" lon="5.350" intensity="5.0" name="COLIGNY"/>
  <station source="SISFR016" netid="INTENSITY" code="FR_05768" lat="46.400" lon="6.600" intensity="5.0" name="EVIAN-LES-BAINS"/>
  <station source="SISFR016" netid="INTENSITY" code="FR_00910" lat="44.567" lon="6.083" intensity="5.0" name="GAP"/>
  <station source="SISFR016" netid="INTENSITY" code="CH_00186" lat="46.217" lon="6.150" intensity="5.0" name="GENEVE"/>
  <station source="SISFR016" netid="INTENSITY" code="FR_00961" lat="45.183" lon="5.717" intensity="5.0" name="GRENOBLE"/>
  <station source="SISFR016" netid="INTENSITY" code="FR_07212" lat="45.200" lon="5.750" intensity="5.0" name="LA TRONCHE"/>
  <station source="SISFR016" netid="INTENSITY" code="CH_00839" lat="46.200" lon="6.133" intensity="5.0" name="LANCY"/>
  <station source="SISFR016" netid="INTENSITY" code="CH_00249" lat="46.533" lon="6.650" intensity="5.0" name="LAUSANNE"/>
  <station source="SISFR016" netid="INTENSITY" code="FR_07571" lat="45.133" lon="5.700" intensity="5.0" name="LE PONT-DE-CLAIX"/>
  <station source="SISFR016" netid="INTENSITY" code="FR_07726" lat="46.250" lon="5.200" intensity="5.0" name="LES GREFFETS (VIRIAT)"/>
  <station source="SISFR016" netid="INTENSITY" code="FR_01420" lat="45.767" lon="4.850" intensity="5.0" name="LYON"/>
  <station source="SISFR016" netid="INTENSITY" code="FR_08125" lat="47.250" lon="6.800" intensity="5.0" name="MAICHE"/>
  <station source="SISFR016" netid="INTENSITY" code="FR_01452" lat="46.350" lon="5.250" intensity="5.0" name="MARBOZ"/>
  <station source="SISFR016" netid="INTENSITY" code="FR_08512" lat="45.900" lon="5.200" intensity="5.0" name="MEXIMIEUX"/>
  <station source="SISFR016" netid="INTENSITY" code="FR_08939" lat="46.150" lon="5.600" intensity="5.0" name="NANTUA"/>
  <station source="SISFR016" netid="INTENSITY" code="CH_00982" lat="46.267" lon="7.100" intensity="5.0" name="PLANS-SUR-BEX"/>
  <station source="SISFR016" netid="INTENSITY" code="FR_01857" lat="46.833" lon="5.700" intensity="5.0" name="POLIGNY"/>
  <station source="SISFR016" netid="INTENSITY" code="FR_09708" lat="46.000" lon="5.283" intensity="5.0" name="PRIAY"/>
  <station source="SISFR016" netid="INTENSITY" code="FR_09712" lat="46.317" lon="4.750" intensity="5.0" name="PRISSE"/>
  <station source="SISFR016" netid="INTENSITY" code="FR_02073" lat="45.867" lon="5.950" intensity="5.0" name="RUMILLY"/>
  <station source="SISFR016" netid="INTENSITY" code="FR_10306" lat="46.233" lon="6.317" intensity="5.0" name="SAINT-CERGUES"/>
  <station source="SISFR016" netid="INTENSITY" code="FR_10613" lat="46.150" lon="6.083" intensity="5.0" name="SAINT-JULIEN-EN-GENEVOIS"/>
  <station source="SISFR016" netid="INTENSITY" code="FR_11300" lat="45.150" lon="5.683" intensity="5.0" name="SEYSSINS"/>
  <station source="SISFR016" netid="INTENSITY" code="FR_02605" lat="46.367" lon="6.483" intensity="5.0" name="THONON-LES-BAINS"/>
  <station source="SISFR016" netid="INTENSITY" code="FR_02683" lat="44.933" lon="4.900" intensity="5.0" name="VALENCE"/>
  <station source="SISFR016" netid="INTENSITY" code="CH_01143" lat="46.217" lon="6.200" intensity="5.0" name="VANDOEUVRES"/>
  <station source="SISFR016" netid="INTENSITY" code="FR_00078" lat="45.900" lon="6.133" intensity="4.5" name="ANNECY"/>
  <station source="SISFR016" netid="INTENSITY" code="FR_04062" lat="46.200" lon="5.233" intensity="4.5" name="BOURG-EN-BRESSE"/>
  <station source="SISFR016" netid="INTENSITY" code="CH_00173" lat="46.833" lon="7.167" intensity="4.5" name="FRIBOURG"/>
  <station source="SISFR016" netid="INTENSITY" code="FR_01164" lat="45.567" lon="5.450" intensity="4.5" name="LA TOUR-DU-PIN"/>
  <station source="SISFR016" netid="INTENSITY" code="FR_01282" lat="45.533" lon="5.667" intensity="4.5" name="LE PONT-DE-BEAUVOISIN"/>
  <station source="SISFR016" netid="INTENSITY" code="FR_01421" lat="46.317" lon="4.833" intensity="4.5" name="MACON"/>
  <station source="SISFR016" netid="INTENSITY" code="CH_00892" lat="46.483" lon="6.233" intensity="4.5" name="MARCHISSY"/>
  <station source="SISFR016" netid="INTENSITY" code="FR_08754" lat="46.083" lon="4.750" intensity="4.5" name="MONTMERLE-SUR-SAONE"/>
  <station source="SISFR016" netid="INTENSITY" code="CH_00914" lat="46.233" lon="6.867" intensity="4.5" name="MORGINS"/>
  <station source="SISFR016" netid="INTENSITY" code="FR_09363" lat="46.133" lon="6.383" intensity="4.5" name="PEILLONNEX"/>
  <station source="SISFR016" netid="INTENSITY" code="FR_09600" lat="46.900" lon="6.350" intensity="4.5" name="PONTARLIER"/>
  <station source="SISFR016" netid="INTENSITY" code="FR_10242" lat="46.150" lon="5.150" intensity="4.5" name="SAINT-ANDRE-SUR-VIEUX-JONC"/>
  <station source="SISFR016" netid="INTENSITY" code="FR_11036" lat="46.517" lon="4.600" intensity="4.5" name="SALORNAY-SUR-GUYE"/>
  <station source="SISFR016" netid="INTENSITY" code="FR_04515" lat="46.783" lon="4.850" intensity="4.0" name="CHALON-SUR-SAONE"/>
  <station source="SISFR016" netid="INTENSITY" code="FR_00759" lat="47.317" lon="5.033" intensity="4.0" name="DIJON"/>
  <station source="SISFR016" netid="INTENSITY" code="FR_01397" lat="46.633" lon="5.217" intensity="4.0" name="LOUHANS"/>
  <station source="SISFR016" netid="INTENSITY" code="FR_08475" lat="46.800" lon="5.183" intensity="4.0" name="MERVANS"/>
  <station source="SISFR016" netid="INTENSITY" code="CH_00322" lat="47.000" lon="6.933" intensity="4.0" name="NEUCHATEL"/>
  <station source="SISFR016" netid="INTENSITY" code="CH_00428" lat="47.217" lon="7.533" intensity="4.0" name="SOLOTHURN"/>
  <station source="SISFR016" netid="INTENSITY" code="FR_11741" lat="45.950" lon="4.767" intensity="4.0" name="TREVOUX"/>
  <station source="SISFR016" netid="INTENSITY" code="CH_01128" lat="47.300" lon="7.217" intensity="4.0" name="UNDERVELIER"/>
  <station source="SISFR016" netid="INTENSITY" code="FR_02804" lat="45.983" lon="4.717" intensity="4.0" name="VILLEFRANCHE-SUR-SAONE"/>
  <station source="SISFR016" netid="INTENSITY" code="FR_12354" lat="45.367" lon="5.583" intensity="4.0" name="VOIRON"/>
  <station source="SISFR016" netid="INTENSITY" code="CH_00008" lat="46.333" lon="6.967" intensity="3.9" name="AIGLE"/>
  <station source="SISFR016" netid="INTENSITY" code="IT_08062" lat="44.913" lon="8.615" intensity="3.9" name="Alessandria"/>
  <station source="SISFR016" netid="INTENSITY" code="FR_03001" lat="47.617" lon="7.233" intensity="3.9" name="ALTKIRCH"/>
  <station source="SISFR016" netid="INTENSITY" code="FR_03016" lat="45.950" lon="5.350" intensity="3.9" name="AMBERIEU-EN-BUGEY"/>
  <station source="SISFR016" netid="INTENSITY" code="IT_09317" lat="45.736" lon="7.317" intensity="3.9" name="Aosta"/>
  <station source="SISFR016" netid="INTENSITY" code="FR_00100" lat="46.900" lon="5.767" intensity="3.9" name="ARBOIS"/>
  <station source="SISFR016" netid="INTENSITY" code="IT_00138" lat="45.302" lon="7.216" intensity="3.9" name="Balme"/>
  <station source="SISFR016" netid="INTENSITY" code="IT_00148" lat="45.077" lon="6.702" intensity="3.9" name="Bardonecchia"/>
  <station source="SISFR016" netid="INTENSITY" code="CH_00038" lat="47.550" lon="7.600" intensity="3.9" name="BASEL"/>
  <station source="SISFR016" netid="INTENSITY" code="FR_00257" lat="47.650" lon="6.850" intensity="3.9" name="BELFORT"/>
  <station source="SISFR016" netid="INTENSITY" code="CH_00061" lat="46.950" lon="7.433" intensity="3.9" name="BERN"/>
  <station source="SISFR016" netid="INTENSITY" code="FR_00283" lat="47.250" lon="6.033" intensity="3.9" name="BESANCON"/>
  <station source="SISFR016" netid="INTENSITY" code="CH_00071" lat="46.267" lon="7.017" intensity="3.9" name="BEX"/>
  <station source="SISFR016" netid="INTENSITY" code="CH_00074" lat="47.150" lon="7.267" intensity="3.9" name="BIEL"/>
  <station source="SISFR016" netid="INTENSITY" code="IT_00206" lat="45.513" lon="7.858" intensity="3.9" name="Borgofranco d'Ivrea"/>
  <station source="SISFR016" netid="INTENSITY" code="FR_00353" lat="45.583" lon="5.283" intensity="3.9" name="BOURGOIN-JALLIEU"/>
  <station source="SISFR016" netid="INTENSITY" code="FR_00360" lat="45.450" lon="6.650" intensity="3.9" name="BOZEL"/>
  <station source="SISFR016" netid="INTENSITY" code="FR_04352" lat="45.800" lon="4.850" intensity="3.9" name="CALUIRE-ET-CUIRE"/>
  <station source="SISFR016" netid="INTENSITY" code="IT_00599" lat="45.432" lon="7.234" intensity="3.9" name="Ceresole Reale"/>
  <station source="SISFR016" netid="INTENSITY" code="FR_04547" lat="45.917" lon="6.867" intensity="3.9" name="CHAMONIX-MONT-BLANC"/>
  <station source="SISFR016" netid="INTENSITY" code="CH_00118" lat="46.450" lon="6.883" intensity="3.9" name="CLARENS"/>
  <station source="SISFR016" netid="INTENSITY" code="CH_00667" lat="46.483" lon="6.717" intensity="3.9" name="CULLY"/>
  <station source="SISFR016" netid="INTENSITY" code="FR_05255" lat="45.850" lon="5.783" intensity="3.9" name="CULOZ"/>
  <station source="SISFR016" netid="INTENSITY" code="IT_04216" lat="46.117" lon="8.292" intensity="3.9" name="Domodossola"/>
  <station source="SISFR016" netid="INTENSITY" code="CH_00693" lat="46.650" lon="6.633" intensity="3.9" name="ECHALLENS"/>
  <station source="SISFR016" netid="INTENSITY" code="CH_00704" lat="46.733" lon="6.600" intensity="3.9" name="EPENDES"/>
  <station source="SISFR016" netid="INTENSITY" code="CH_00167" lat="46.917" lon="6.583" intensity="3.9" name="FLEURIER"/>
  <station source="SISFR016" netid="INTENSITY" code="FR_05952" lat="45.833" lon="4.850" intensity="3.9" name="FONTAINES-SUR-SAONE"/>
  <station source="SISFR016" netid="INTENSITY" code="IT_05698" lat="44.550" lon="7.721" intensity="3.9" name="Fossano"/>
  <station source="SISFR016" netid="INTENSITY" code="FR_00923" lat="46.333" lon="6.067" intensity="3.9" name="GEX"/>
  <station source="SISFR016" netid="INTENSITY" code="IT_03110" lat="45.558" lon="7.978" intensity="3.9" name="Graglia"/>
  <station source="SISFR016" netid="INTENSITY" code="CH_00767" lat="46.817" lon="6.650" intensity="3.9" name="GRANDSON"/>
  <station source="SISFR016" netid="INTENSITY" code="FR_07386" lat="45.833" lon="4.617" intensity="3.9" name="L'ARBRESLE"/>
  <station source="SISFR016" netid="INTENSITY" code="FR_01068" lat="45.367" lon="6.300" intensity="3.9" name="LA CHAMBRE"/>
  <station source="SISFR016" netid="INTENSITY" code="CH_00233" lat="47.117" lon="6.850" intensity="3.9" name="LA CHAUX-DE-FONDS"/>
  <station source="SISFR016" netid="INTENSITY" code="CH_00835" lat="46.200" lon="6.167" intensity="3.9" name="LA PAUMIERE"/>
  <station source="SISFR016" netid="INTENSITY" code="CH_00838" lat="46.650" lon="6.500" intensity="3.9" name="LA SARRAZ"/>
  <station source="SISFR016" netid="INTENSITY" code="FR_07204" lat="45.817" lon="4.717" intensity="3.9" name="LA TOUR-DE-SALVAGNY"/>
  <station source="SISFR016" netid="INTENSITY" code="CH_00259" lat="47.067" lon="6.750" intensity="3.9" name="LE LOCLE"/>
  <station source="SISFR016" netid="INTENSITY" code="CH_00865" lat="46.467" lon="7.450" intensity="3.9" name="LENK"/>
  <station source="SISFR016" netid="INTENSITY" code="FR_07986" lat="46.667" lon="5.550" intensity="3.9" name="LONS-LE-SAUNIER"/>
  <station source="SISFR016" netid="INTENSITY" code="FR_08399" lat="46.083" lon="6.600" intensity="3.9" name="MELAN (TANINGES)"/>
  <station source="SISFR016" netid="INTENSITY" code="FR_01536" lat="45.200" lon="6.683" intensity="3.9" name="MODANE"/>
  <station source="SISFR016" netid="INTENSITY" code="IT_01426" lat="45.000" lon="7.685" intensity="3.9" name="Moncalieri"/>
  <station source="SISFR016" netid="INTENSITY" code="FR_01575" lat="47.517" lon="6.800" intensity="3.9" name="MONTBELIARD"/>
  <station source="SISFR016" netid="INTENSITY" code="CH_00299" lat="46.450" lon="6.917" intensity="3.9" name="MONTREUX"/>
  <station source="SISFR016" netid="INTENSITY" code="CH_00301" lat="46.517" lon="6.500" intensity="3.9" name="MORGES"/>
  <station source="SISFR016" netid="INTENSITY" code="FR_01669" lat="47.750" lon="7.333" intensity="3.9" name="MULHOUSE"/>
  <station source="SISFR016" netid="INTENSITY" code="FR_09002" lat="45.883" lon="4.833" intensity="3.9" name="NEUVILLE-SUR-SAONE"/>
  <station source="SISFR016" netid="INTENSITY" code="CH_00328" lat="46.383" lon="6.233" intensity="3.9" name="NYON"/>
  <station source="SISFR016" netid="INTENSITY" code="CH_00962" lat="47.350" lon="7.917" intensity="3.9" name="OLTEN"/>
  <station source="SISFR016" netid="INTENSITY" code="IT_02773" lat="45.627" lon="7.981" intensity="3.9" name="Oropa [santuario]"/>
  <station source="SISFR016" netid="INTENSITY" code="CH_00340" lat="46.817" lon="6.950" intensity="3.9" name="PAYERNE"/>
  <station source="SISFR016" netid="INTENSITY" code="CH_00977" lat="46.233" lon="6.117" intensity="3.9" name="PETIT-SACONNEX"/>
  <station source="SISFR016" netid="INTENSITY" code="CH_00981" lat="46.183" lon="6.133" intensity="3.9" name="PLAINPALAIS"/>
  <station source="SISFR016" netid="INTENSITY" code="FR_09584" lat="45.850" lon="4.800" intensity="3.9" name="POLEYMIEUX-AU-MONT-D'OR"/>
  <station source="SISFR016" netid="INTENSITY" code="IT_03330" lat="45.582" lon="8.003" intensity="3.9" name="Pollone"/>
  <station source="SISFR016" netid="INTENSITY" code="CH_00357" lat="47.417" lon="7.100" intensity="3.9" name="PORRENTRUY"/>
  <station source="SISFR016" netid="INTENSITY" code="IT_70011" lat="45.099" lon="7.345" intensity="3.9" name="Sacra di San Michele"/>
  <station source="SISFR016" netid="INTENSITY" code="FR_10229" lat="46.433" lon="5.333" intensity="3.9" name="SAINT-AMOUR"/>
  <station source="SISFR016" netid="INTENSITY" code="FR_02182" lat="45.433" lon="4.383" intensity="3.9" name="SAINT-ETIENNE"/>
  <station source="SISFR016" netid="INTENSITY" code="FR_02233" lat="47.317" lon="6.817" intensity="3.9" name="SAINT-HIPPOLYTE"/>
  <station source="SISFR016" netid="INTENSITY" code="FR_10975" lat="46.683" lon="5.250" intensity="3.9" name="SAINT-USUGE"/>
  <station source="SISFR016" netid="INTENSITY" code="FR_11023" lat="45.933" lon="6.633" intensity="3.9" name="SALLANCHES"/>
  <station source="SISFR016" netid="INTENSITY" code="IT_32907" lat="44.307" lon="8.480" intensity="3.9" name="Savona"/>
  <station source="SISFR016" netid="INTENSITY" code="FR_11301" lat="45.733" lon="6.300" intensity="3.9" name="SEYTHENEX"/>
  <station source="SISFR016" netid="INTENSITY" code="IT_03578" lat="45.572" lon="7.974" intensity="3.9" name="Sordevolo"/>
  <station source="SISFR016" netid="INTENSITY" code="CH_00445" lat="47.017" lon="6.983" intensity="3.9" name="ST-BLAISE"/>
  <station source="SISFR016" netid="INTENSITY" code="IT_02347" lat="45.136" lon="7.052" intensity="3.9" name="Susa"/>
  <station source="SISFR016" netid="INTENSITY" code="FR_11518" lat="45.767" lon="4.767" intensity="3.9" name="TASSIN-LA-DEMI-LUNE"/>
  <station source="SISFR016" netid="INTENSITY" code="CH_01112" lat="46.767" lon="7.633" intensity="3.9" name="THUN"/>
  <station source="SISFR016" netid="INTENSITY" code="IT_02356" lat="45.070" lon="7.674" intensity="3.9" name="Torino"/>
  <station source="SISFR016" netid="INTENSITY" code="CH_01116" lat="46.950" lon="6.683" intensity="3.9" name="TRAVERS"/>
  <station source="SISFR016" netid="INTENSITY" code="FR_11923" lat="45.733" lon="4.650" intensity="3.9" name="VAUGNERAY"/>
  <station source="SISFR016" netid="INTENSITY" code="FR_02756" lat="47.617" lon="6.150" intensity="3.9" name="VESOUL"/>
  <station source="SISFR016" netid="INTENSITY" code="FR_12077" lat="46.167" lon="6.267" intensity="3.9" name="VETRAZ-MONTHOUX"/>
  <station source="SISFR016" netid="INTENSITY" code="CH_00497" lat="46.467" lon="6.850" intensity="3.9" name="VEVEY"/>
  <station source="SISFR016" netid="INTENSITY" code="FR_02771" lat="45.533" lon="4.883" intensity="3.9" name="VIENNE"/>
  <station source="SISFR016" netid="INTENSITY" code="FR_02838" lat="45.083" lon="5.767" intensity="3.9" name="VIZILLE"/>
  <station source="SISFR016" netid="INTENSITY" code="CH_00524" lat="46.783" lon="6.633" intensity="3.9" name="YVERDON"/>
  <station source="SISFR016" netid="INTENSITY" code="CH_01185" lat="46.133" lon="7.633" intensity="3.9" name="ZINAL"/>
  <station source="SISFR016" netid="INTENSITY" code="FR_12559" lat="47.567" lon="4.417" intensity="3.5" name="GRIGNON"/>
</stationlist>
