<?xml version="1.0" encoding="UTF-8"?>
<stationlist reference="DBMI15v4" created="20250808064904">
  <station source="SCIAL006" netid="INTENSITY" code="IT_64719" lat="38.962" lon="16.388" intensity="9.0" name="Feroleto Antico"/>
  <station source="SCIAL006" netid="INTENSITY" code="IT_64643" lat="38.838" lon="16.412" intensity="8.5" name="Cortale"/>
  <station source="SCIAL006" netid="INTENSITY" code="IT_64844" lat="38.974" lon="16.318" intensity="8.0" name="Lamezia Terme (Nicastro)"/>
  <station source="SCIAL006" netid="INTENSITY" code="IT_64567" lat="38.905" lon="16.594" intensity="5.0" name="Catanzaro"/>
  <station source="SCIAL006" netid="INTENSITY" code="IT_66973" lat="38.185" lon="15.555" intensity="3.9" name="Messina"/>
</stationlist>
