<?xml version="1.0" encoding="UTF-8"?>
<stationlist reference="DBMI15v4" created="20250821141233">
  <station source="SHEB977" netid="INTENSITY" code="RO_00018" lat="46.778" lon="23.597" intensity="7.0" name="Cluj-Napoca"/>
  <station source="SHEB977" netid="INTENSITY" code="RO_00041" lat="45.796" lon="24.151" intensity="7.0" name="Sibiu"/>
  <station source="SHEB977" netid="INTENSITY" code="RO_00051" lat="46.330" lon="24.270" intensity="7.0" name="Tyrnaveni"/>
  <station source="SHEB977" netid="INTENSITY" code="RO_00011" lat="45.642" lon="25.589" intensity="3.9" name="BraÅŸov"/>
  <station source="SHEB977" netid="INTENSITY" code="UA_00019" lat="48.679" lon="26.591" intensity="3.9" name="Kamenets-Podol'skiy"/>
  <station source="SHEB977" netid="INTENSITY" code="UA_00030" lat="49.843" lon="24.026" intensity="3.9" name="L'viv"/>
</stationlist>
