<?xml version="1.0" encoding="UTF-8"?>
<stationlist reference="DBMI15v4" created="20250821142358">
  <station source="UNITH003" netid="INTENSITY" code="TR_00320" lat="39.912" lon="28.158" intensity="8.0" name="SUSURLUK"/>
  <station source="UNITH003" netid="INTENSITY" code="TR_00332" lat="40.198" lon="29.108" intensity="8.0" name="ULUBAT"/>
  <station source="UNITH003" netid="INTENSITY" code="TR_00032" lat="40.183" lon="29.067" intensity="7.0" name="Bursa"/>
  <station source="UNITH003" netid="INTENSITY" code="TR_00034" lat="40.409" lon="26.672" intensity="5.0" name="Gelibolu"/>
  <station source="UNITH003" netid="INTENSITY" code="TR_00078" lat="41.012" lon="28.976" intensity="5.0" name="Istanbul"/>
  <station source="UNITH003" netid="INTENSITY" code="TR_00079" lat="38.416" lon="27.137" intensity="5.0" name="Izmir"/>
</stationlist>
