<?xml version="1.0" encoding="UTF-8"?>
<stationlist reference="DBMI15v4" created="20250821142401">
  <station source="TAXE003" netid="INTENSITY" code="GR_00126" lat="37.757" lon="26.976" intensity="7.5" name="Samos"/>
  <station source="TAXE003" netid="INTENSITY" code="TR_00079" lat="38.416" lon="27.137" intensity="7.0" name="Izmir"/>
  <station source="TAXE003" netid="INTENSITY" code="TR_00242" lat="40.764" lon="26.505" intensity="5.0" name="Karahisar"/>
  <station source="TAXE003" netid="INTENSITY" code="GR_00758" lat="37.783" lon="26.700" intensity="5.0" name="Karlovasi: see Neon Karlovasion"/>
  <station source="TAXE003" netid="INTENSITY" code="GR_00730" lat="37.700" lon="27.050" intensity="5.0" name="Mykali"/>
  <station source="TAXE003" netid="INTENSITY" code="GR_00141" lat="40.633" lon="22.944" intensity="3.5" name="Thessaloniki"/>
</stationlist>
