<?xml version="1.0" encoding="UTF-8"?>
<stationlist reference="DBMI15v4" created="20250808065337">
  <station source="ALBAL017" netid="INTENSITY" code="GR_03343" lat="38.162" lon="22.101" intensity="9.0" name="Boufouskia"/>
  <station source="ALBAL017" netid="INTENSITY" code="GR_00029" lat="38.191" lon="22.200" intensity="9.0" name="Diakopto"/>
  <station source="ALBAL017" netid="INTENSITY" code="GR_02823" lat="38.200" lon="22.167" intensity="9.0" name="Elaionas"/>
  <station source="ALBAL017" netid="INTENSITY" code="GR_02826" lat="38.216" lon="22.123" intensity="9.0" name="Eliki"/>
  <station source="ALBAL017" netid="INTENSITY" code="GR_03349" lat="38.202" lon="22.121" intensity="9.0" name="Keryneia"/>
  <station source="ALBAL017" netid="INTENSITY" code="GR_01838" lat="38.196" lon="22.019" intensity="9.0" name="Kounina"/>
  <station source="ALBAL017" netid="INTENSITY" code="GR_03196" lat="38.206" lon="22.151" intensity="9.0" name="Rodia"/>
  <station source="ALBAL017" netid="INTENSITY" code="GR_03205" lat="38.220" lon="22.100" intensity="9.0" name="Selinountas"/>
  <station source="ALBAL017" netid="INTENSITY" code="GR_02504" lat="38.237" lon="22.123" intensity="9.0" name="Temeni"/>
  <station source="ALBAL017" netid="INTENSITY" code="GR_02551" lat="38.234" lon="22.138" intensity="9.0" name="Valimitika"/>
  <station source="ALBAL017" netid="INTENSITY" code="GR_00005" lat="38.250" lon="22.083" intensity="8.5" name="Aigio"/>
  <station source="ALBAL017" netid="INTENSITY" code="GR_00043" lat="38.377" lon="22.384" intensity="8.5" name="Galaxidi"/>
  <station source="ALBAL017" netid="INTENSITY" code="GR_02743" lat="38.377" lon="22.632" intensity="8.0" name="Antikyra"/>
  <station source="ALBAL017" netid="INTENSITY" code="GR_01353" lat="38.481" lon="22.583" intensity="8.0" name="Arachova"/>
  <station source="ALBAL017" netid="INTENSITY" code="GR_03341" lat="38.259" lon="22.049" intensity="8.0" name="Ayios Konstantinos"/>
  <station source="ALBAL017" netid="INTENSITY" code="GR_01467" lat="38.134" lon="22.425" intensity="8.0" name="Derveni"/>
  <station source="ALBAL017" netid="INTENSITY" code="GR_03344" lat="38.249" lon="22.046" intensity="8.0" name="Dimitropoulo"/>
  <station source="ALBAL017" netid="INTENSITY" code="GR_03345" lat="38.433" lon="22.667" intensity="8.0" name="Distomo"/>
  <station source="ALBAL017" netid="INTENSITY" code="GR_03346" lat="38.385" lon="22.112" intensity="8.0" name="Elaia"/>
  <station source="ALBAL017" netid="INTENSITY" code="GR_03347" lat="38.101" lon="22.488" intensity="8.0" name="Elliniko"/>
  <station source="ALBAL017" netid="INTENSITY" code="GR_00040" lat="38.072" lon="22.396" intensity="8.0" name="Evrostina"/>
  <station source="ALBAL017" netid="INTENSITY" code="GR_01657" lat="38.433" lon="22.420" intensity="8.0" name="Itea"/>
  <station source="ALBAL017" netid="INTENSITY" code="GR_02893" lat="38.391" lon="22.140" intensity="8.0" name="Kallithea"/>
  <station source="ALBAL017" netid="INTENSITY" code="GR_03350" lat="38.073" lon="22.528" intensity="8.0" name="Korfiotissa"/>
  <station source="ALBAL017" netid="INTENSITY" code="GR_03351" lat="38.240" lon="22.087" intensity="8.0" name="Kouloura"/>
  <station source="ALBAL017" netid="INTENSITY" code="GR_03059" lat="38.193" lon="22.169" intensity="8.0" name="Metochi"/>
  <station source="ALBAL017" netid="INTENSITY" code="GR_03357" lat="38.208" lon="22.142" intensity="8.0" name="Nikolaika"/>
  <station source="ALBAL017" netid="INTENSITY" code="GR_00845" lat="38.178" lon="22.239" intensity="8.0" name="Pounta"/>
  <station source="ALBAL017" netid="INTENSITY" code="GR_03360" lat="38.213" lon="22.133" intensity="8.0" name="Rizomylos"/>
  <station source="ALBAL017" netid="INTENSITY" code="GR_02392" lat="38.265" lon="22.049" intensity="8.0" name="Rododafni"/>
  <station source="ALBAL017" netid="INTENSITY" code="GR_03363" lat="38.253" lon="22.109" intensity="8.0" name="Stafidalonon"/>
  <station source="ALBAL017" netid="INTENSITY" code="GR_00145" lat="38.368" lon="22.192" intensity="8.0" name="Tolofon"/>
  <station source="ALBAL017" netid="INTENSITY" code="GR_03365" lat="38.356" lon="22.293" intensity="8.0" name="Vidavi - Paralia Agion Panton"/>
  <station source="ALBAL017" netid="INTENSITY" code="GR_03367" lat="38.210" lon="22.137" intensity="8.0" name="[Chalkaniotika]"/>
  <station source="ALBAL017" netid="INTENSITY" code="GR_03338" lat="38.221" lon="22.140" intensity="8.0" name="[Taratza]"/>
  <station source="ALBAL017" netid="INTENSITY" code="GR_01451" lat="38.475" lon="22.468" intensity="7.5" name="Chrisso"/>
  <station source="ALBAL017" netid="INTENSITY" code="GR_03348" lat="38.394" lon="22.747" intensity="7.5" name="Hosios Loukas"/>
  <station source="ALBAL017" netid="INTENSITY" code="GR_03358" lat="38.480" lon="22.028" intensity="7.5" name="Paleoxari"/>
  <station source="ALBAL017" netid="INTENSITY" code="GR_00221" lat="38.154" lon="22.314" intensity="7.0" name="Akrata"/>
  <station source="ALBAL017" netid="INTENSITY" code="GR_00007" lat="38.528" lon="22.378" intensity="7.0" name="Amfisa"/>
  <station source="ALBAL017" netid="INTENSITY" code="GR_03340" lat="38.533" lon="22.376" intensity="7.0" name="Ayios Georgios"/>
  <station source="ALBAL017" netid="INTENSITY" code="GR_01466" lat="38.483" lon="22.500" intensity="7.0" name="Dhelfoi"/>
  <station source="ALBAL017" netid="INTENSITY" code="GR_00080" lat="38.528" lon="22.204" intensity="7.0" name="Lidhorikion"/>
  <station source="ALBAL017" netid="INTENSITY" code="GR_00637" lat="38.438" lon="22.877" intensity="7.0" name="Livadhia"/>
  <station source="ALBAL017" netid="INTENSITY" code="GR_03040" lat="38.392" lon="22.014" intensity="7.0" name="Marathias"/>
  <station source="ALBAL017" netid="INTENSITY" code="GR_00109" lat="38.244" lon="21.734" intensity="7.0" name="Patras"/>
  <station source="ALBAL017" netid="INTENSITY" code="GR_03362" lat="38.414" lon="22.055" intensity="7.0" name="Sergoula"/>
  <station source="ALBAL017" netid="INTENSITY" code="GR_03366" lat="38.476" lon="22.627" intensity="7.0" name="Zemeno Arachovas"/>
  <station source="ALBAL017" netid="INTENSITY" code="GR_00158" lat="38.872" lon="22.241" intensity="6.5" name="Ypati"/>
  <station source="ALBAL017" netid="INTENSITY" code="GR_00010" lat="37.905" lon="22.880" intensity="6.0" name="Archaia Korinthos"/>
  <station source="ALBAL017" netid="INTENSITY" code="GR_00064" lat="37.939" lon="22.927" intensity="6.0" name="Corinth"/>
  <station source="ALBAL017" netid="INTENSITY" code="GR_00477" lat="38.032" lon="22.111" intensity="6.0" name="Kalavrita"/>
  <station source="ALBAL017" netid="INTENSITY" code="GR_00057" lat="38.915" lon="21.793" intensity="6.0" name="Karpenisi"/>
  <station source="ALBAL017" netid="INTENSITY" code="GR_03355" lat="38.002" lon="22.139" intensity="6.0" name="Lousoi"/>
  <station source="ALBAL017" netid="INTENSITY" code="GR_03356" lat="38.090" lon="22.174" intensity="6.0" name="Moni Megalou Spileou"/>
  <station source="ALBAL017" netid="INTENSITY" code="GR_00102" lat="38.395" lon="21.833" intensity="6.0" name="Naupaktos"/>
  <station source="ALBAL017" netid="INTENSITY" code="GR_03359" lat="38.165" lon="22.072" intensity="6.0" name="Pirgaki"/>
  <station source="ALBAL017" netid="INTENSITY" code="GR_00143" lat="38.317" lon="23.317" intensity="6.0" name="Thebes"/>
  <station source="ALBAL017" netid="INTENSITY" code="GR_01794" lat="37.823" lon="22.750" intensity="5.5" name="Archaiaes Kleones"/>
  <station source="ALBAL017" netid="INTENSITY" code="GR_00465" lat="37.900" lon="23.011" intensity="5.5" name="Palaio Kalamaki"/>
  <station source="ALBAL017" netid="INTENSITY" code="GR_02423" lat="37.982" lon="22.724" intensity="5.5" name="Sikionos"/>
  <station source="ALBAL017" netid="INTENSITY" code="GR_00156" lat="38.077" lon="22.633" intensity="5.5" name="Xylokastro"/>
  <station source="ALBAL017" netid="INTENSITY" code="GR_02020" lat="38.369" lon="21.429" intensity="5.0" name="Mesolongi"/>
  <station source="ALBAL017" netid="INTENSITY" code="GR_00073" lat="38.900" lon="22.433" intensity="4.5" name="Lamia"/>
  <station source="ALBAL017" netid="INTENSITY" code="GR_00971" lat="37.513" lon="22.374" intensity="4.5" name="Tripolis"/>
  <station source="ALBAL017" netid="INTENSITY" code="GR_01287" lat="37.800" lon="21.350" intensity="3.0" name="Amaliada"/>
  <station source="ALBAL017" netid="INTENSITY" code="GR_00312" lat="37.976" lon="23.733" intensity="3.0" name="Athens"/>
  <station source="ALBAL017" netid="INTENSITY" code="GR_00560" lat="38.634" lon="24.104" intensity="3.0" name="Kimi"/>
  <station source="ALBAL017" netid="INTENSITY" code="GR_00684" lat="38.000" lon="23.333" intensity="3.0" name="Megara"/>
  <station source="ALBAL017" netid="INTENSITY" code="GR_00821" lat="37.950" lon="23.633" intensity="3.0" name="Piraeus"/>
  <station source="ALBAL017" netid="INTENSITY" code="GR_00906" lat="38.904" lon="24.563" intensity="3.0" name="Skiros"/>
  <station source="ALBAL017" netid="INTENSITY" code="GR_00160" lat="37.780" lon="20.896" intensity="3.0" name="Zakynthos"/>
  <station source="ALBAL017" netid="INTENSITY" code="GR_02838" lat="37.445" lon="24.943" intensity="1.0" name="Ermoupoli"/>
</stationlist>
