<?xml version="1.0" encoding="UTF-8"?>
<stationlist reference="DBMI15v4" created="20250808065330">
  <station source="UNITH003" netid="INTENSITY" code="GR_00073" lat="38.900" lon="22.433" intensity="8.0" name="Lamia"/>
  <station source="UNITH003" netid="INTENSITY" code="GR_00094" lat="38.817" lon="22.650" intensity="8.0" name="Molos"/>
  <station source="UNITH003" netid="INTENSITY" code="GR_00123" lat="38.717" lon="22.700" intensity="8.0" name="Regkinion"/>
  <station source="UNITH003" netid="INTENSITY" code="GR_00140" lat="38.799" lon="22.545" intensity="8.0" name="Thermopyles"/>
  <station source="UNITH003" netid="INTENSITY" code="GR_00087" lat="39.720" lon="21.630" intensity="5.0" name="Meteora"/>
</stationlist>
