<?xml version="1.0" encoding="UTF-8"?>
<stationlist reference="DBMI15v4" created="20250808065339">
  <station source="UNITH003" netid="INTENSITY" code="GR_00160" lat="37.780" lon="20.896" intensity="8.0" name="Zakynthos"/>
  <station source="UNITH003" netid="INTENSITY" code="GR_01860" lat="37.933" lon="21.133" intensity="7.0" name="Kyllini"/>
  <station source="UNITH003" netid="INTENSITY" code="GR_00121" lat="37.672" lon="21.441" intensity="7.0" name="Pyrgos"/>
  <station source="UNITH003" netid="INTENSITY" code="GR_02564" lat="37.830" lon="21.200" intensity="7.0" name="Vartholomion"/>
  <station source="UNITH003" netid="INTENSITY" code="GR_00109" lat="38.244" lon="21.734" intensity="5.0" name="Patras"/>
  <station source="UNITH003" netid="INTENSITY" code="GR_03308" lat="37.720" lon="22.220" intensity="5.0" name="Vlacherna"/>
  <station source="UNITH003" netid="INTENSITY" code="GR_00360" lat="39.624" lon="19.920" intensity="4.0" name="Corfu"/>
  <station source="UNITH003" netid="INTENSITY" code="GR_00064" lat="37.939" lon="22.927" intensity="4.0" name="Corinth"/>
  <station source="UNITH003" netid="INTENSITY" code="GR_00022" lat="38.467" lon="23.600" intensity="3.0" name="Chalkis"/>
</stationlist>
