<?xml version="1.0" encoding="UTF-8"?>
<stationlist reference="DBMI15v4" created="20250821142400">
  <station source="TAXE003" netid="INTENSITY" code="TR_00132" lat="38.505" lon="27.702" intensity="9.0" name="Turgutlu"/>
  <station source="TAXE003" netid="INTENSITY" code="TR_00150" lat="38.750" lon="30.550" intensity="4.0" name="Afyon"/>
  <station source="TAXE003" netid="INTENSITY" code="TR_00002" lat="37.846" lon="27.843" intensity="4.0" name="Aydin"/>
  <station source="TAXE003" netid="INTENSITY" code="GR_00024" lat="38.367" lon="26.133" intensity="4.0" name="Chios"/>
  <station source="TAXE003" netid="INTENSITY" code="TR_00046" lat="37.783" lon="29.083" intensity="4.0" name="Denizli"/>
  <station source="TAXE003" netid="INTENSITY" code="TR_00235" lat="37.767" lon="30.550" intensity="4.0" name="Isparta"/>
  <station source="TAXE003" netid="INTENSITY" code="TR_00079" lat="38.416" lon="27.137" intensity="4.0" name="Izmir"/>
  <station source="TAXE003" netid="INTENSITY" code="GR_00100" lat="39.106" lon="26.557" intensity="4.0" name="Mytilini"/>
  <station source="TAXE003" netid="INTENSITY" code="TR_00106" lat="37.913" lon="28.322" intensity="4.0" name="Nazilli"/>
</stationlist>
