<?xml version="1.0" encoding="UTF-8"?>
<stationlist reference="DBMI15v4" created="20250821142404">
  <station source="TAXE003" netid="INTENSITY" code="TR_00017" lat="39.650" lon="27.883" intensity="10.0" name="Balikesir"/>
  <station source="TAXE003" netid="INTENSITY" code="TR_00175" lat="39.383" lon="28.133" intensity="10.0" name="Bigadic"/>
  <station source="TAXE003" netid="INTENSITY" code="TR_00313" lat="39.233" lon="28.167" intensity="10.0" name="Sindirgi"/>
  <station source="TAXE003" netid="INTENSITY" code="TR_00194" lat="39.800" lon="29.017" intensity="9.0" name="Demirci"/>
  <station source="TAXE003" netid="INTENSITY" code="TR_00233" lat="40.083" lon="29.517" intensity="9.0" name="Inegol"/>
  <station source="TAXE003" netid="INTENSITY" code="TR_00161" lat="39.314" lon="26.693" intensity="8.0" name="Ayvalik"/>
  <station source="TAXE003" netid="INTENSITY" code="TR_00173" lat="40.217" lon="27.233" intensity="8.0" name="Biga"/>
  <station source="TAXE003" netid="INTENSITY" code="TR_00051" lat="40.183" lon="26.350" intensity="8.0" name="Eceabat"/>
  <station source="TAXE003" netid="INTENSITY" code="TR_00079" lat="38.416" lon="27.137" intensity="8.0" name="Izmir"/>
  <station source="TAXE003" netid="INTENSITY" code="GR_00660" lat="39.317" lon="26.333" intensity="8.0" name="Mandamadhos"/>
  <station source="TAXE003" netid="INTENSITY" code="TR_00152" lat="38.517" lon="27.950" intensity="7.0" name="Ahmetli"/>
  <station source="TAXE003" netid="INTENSITY" code="TR_00199" lat="39.594" lon="27.022" intensity="7.0" name="Edremit"/>
  <station source="TAXE003" netid="INTENSITY" code="GR_00100" lat="39.106" lon="26.557" intensity="7.0" name="Mytilini"/>
  <station source="TAXE003" netid="INTENSITY" code="TR_00306" lat="38.483" lon="28.150" intensity="7.0" name="Salihli"/>
  <station source="TAXE003" netid="INTENSITY" code="TR_00132" lat="38.505" lon="27.702" intensity="7.0" name="Turgutlu"/>
  <station source="TAXE003" netid="INTENSITY" code="TR_00002" lat="37.846" lon="27.843" intensity="6.0" name="Aydin"/>
  <station source="TAXE003" netid="INTENSITY" code="TR_00166" lat="39.750" lon="27.583" intensity="6.0" name="Balya"/>
  <station source="TAXE003" netid="INTENSITY" code="TR_00023" lat="39.117" lon="27.183" intensity="6.0" name="Bergama"/>
  <station source="TAXE003" netid="INTENSITY" code="TR_00190" lat="38.200" lon="27.583" intensity="6.0" name="Cirlak"/>
  <station source="TAXE003" netid="INTENSITY" code="TR_00130" lat="38.085" lon="27.735" intensity="6.0" name="Tire"/>
  <station source="TAXE003" netid="INTENSITY" code="TR_00182" lat="37.867" lon="27.400" intensity="5.0" name="Camlik"/>
  <station source="TAXE003" netid="INTENSITY" code="TR_00046" lat="37.783" lon="29.083" intensity="5.0" name="Denizli"/>
  <station source="TAXE003" netid="INTENSITY" code="TR_00030" lat="39.833" lon="26.068" intensity="4.0" name="Bozcaada"/>
  <station source="TAXE003" netid="INTENSITY" code="TR_00032" lat="40.183" lon="29.067" intensity="4.0" name="Bursa"/>
  <station source="TAXE003" netid="INTENSITY" code="TR_00185" lat="38.323" lon="26.306" intensity="4.0" name="Cesme"/>
  <station source="TAXE003" netid="INTENSITY" code="GR_00024" lat="38.367" lon="26.133" intensity="4.0" name="Chios"/>
  <station source="TAXE003" netid="INTENSITY" code="TR_00034" lat="40.409" lon="26.672" intensity="4.0" name="Gelibolu"/>
  <station source="TAXE003" netid="INTENSITY" code="TR_00220" lat="40.521" lon="30.299" intensity="4.0" name="Geyve"/>
  <station source="TAXE003" netid="INTENSITY" code="TR_00257" lat="40.767" lon="29.917" intensity="4.0" name="Kocaeli"/>
  <station source="TAXE003" netid="INTENSITY" code="TR_00274" lat="40.883" lon="26.900" intensity="4.0" name="Malkara"/>
  <station source="TAXE003" netid="INTENSITY" code="GR_00092" lat="39.867" lon="25.067" intensity="4.0" name="Mirina"/>
  <station source="TAXE003" netid="INTENSITY" code="TR_00296" lat="40.367" lon="30.017" intensity="4.0" name="Osmaneli"/>
  <station source="TAXE003" netid="INTENSITY" code="TR_00299" lat="40.883" lon="29.217" intensity="4.0" name="Pendik"/>
  <station source="TAXE003" netid="INTENSITY" code="GR_00892" lat="41.083" lon="23.550" intensity="4.0" name="Serres"/>
  <station source="TAXE003" netid="INTENSITY" code="TR_00128" lat="40.983" lon="27.517" intensity="4.0" name="Tekirdag"/>
  <station source="TAXE003" netid="INTENSITY" code="GR_00141" lat="40.636" lon="22.944" intensity="4.0" name="Thessaloniki"/>
  <station source="TAXE003" netid="INTENSITY" code="TR_00139" lat="41.032" lon="29.032" intensity="4.0" name="Üsküdar"/>
  <station source="TAXE003" netid="INTENSITY" code="" lat="40.926" lon="24.384" intensity="3.0" name="Chalépio"/>
  <station source="TAXE003" netid="INTENSITY" code="TR_00088" lat="37.857" lon="27.260" intensity="3.0" name="Kuşadası"/>
  <station source="TAXE003" netid="INTENSITY" code="GR_00125" lat="36.430" lon="28.230" intensity="3.0" name="Ródos"/>
  <station source="TAXE003" netid="INTENSITY" code="GR_00126" lat="37.757" lon="26.976" intensity="3.0" name="Samos"/>
</stationlist>
