<?xml version="1.0" encoding="UTF-8"?>
<stationlist reference="DBMI15v4" created="20250821143438">
  <station source="IGN010" netid="INTENSITY" code="ES_00149" lat="37.883" lon="-4.774" intensity="8.6" name="Córdoba"/>
  <station source="IGN010" netid="INTENSITY" code="ES_00042" lat="38.038" lon="-4.053" intensity="8.5" name="Andújar"/>
  <station source="IGN010" netid="INTENSITY" code="ES_00189" lat="37.178" lon="-3.599" intensity="6.4" name="Granada"/>
  <station source="IGN010" netid="INTENSITY" code="ES_00524" lat="37.387" lon="-5.995" intensity="6.4" name="Sevilla"/>
  <station source="IGN010" netid="INTENSITY" code="ES_00547" lat="39.858" lon="-4.023" intensity="3.5" name="Toledo"/>
</stationlist>
