<?xml version="1.0" encoding="UTF-8"?>
<stationlist reference="DBMI15v4" created="20250808065332">
  <station source="MAKKO994a" netid="INTENSITY" code="GR_00075" lat="38.834" lon="20.708" intensity="9.5" name="Lefkada"/>
  <station source="MAKKO994a" netid="INTENSITY" code="GR_00806" lat="38.828" lon="20.709" intensity="9.5" name="Perivolaki"/>
  <station source="MAKKO994a" netid="INTENSITY" code="GR_00770" lat="37.823" lon="20.771" intensity="8.0" name="Old &amp; New Alykes"/>
  <station source="MAKKO994a" netid="INTENSITY" code="GR_00128" lat="38.848" lon="20.715" intensity="8.0" name="Santa Maura [castle]"/>
  <station source="MAKKO994a" netid="INTENSITY" code="GR_00012" lat="38.179" lon="20.487" intensity="4.5" name="Kephalonia (Argostoli)"/>
  <station source="MAKKO994a" netid="INTENSITY" code="GR_02744" lat="38.320" lon="21.750" intensity="3.0" name="Antirrio"/>
  <station source="MAKKO994a" netid="INTENSITY" code="GR_00360" lat="39.624" lon="19.920" intensity="3.0" name="Corfu"/>
  <station source="MAKKO994a" netid="INTENSITY" code="GR_00052" lat="38.364" lon="20.720" intensity="3.0" name="Ithaka (Vathi)"/>
  <station source="MAKKO994a" netid="INTENSITY" code="GR_00102" lat="38.395" lon="21.833" intensity="3.0" name="Naupaktos"/>
  <station source="MAKKO994a" netid="INTENSITY" code="GR_00870" lat="38.302" lon="21.782" intensity="3.0" name="Rio"/>
  <station source="MAKKO994a" netid="INTENSITY" code="GR_00160" lat="37.780" lon="20.896" intensity="3.0" name="Zakynthos"/>
</stationlist>
