<?xml version="1.0" encoding="UTF-8"?>
<stationlist reference="DBMI15v4" created="20250808064909">
  <station source="CFTI5med" netid="INTENSITY" code="IT_41501" lat="44.147" lon="12.134" intensity="8.0" name="Bertinoro"/>
  <station source="CFTI5med" netid="INTENSITY" code="IT_41528" lat="44.172" lon="11.947" intensity="8.0" name="Castrocaro Terme e Terra del Sole (Castrocaro Terme)"/>
  <station source="CFTI5med" netid="INTENSITY" code="IT_41825" lat="44.127" lon="12.061" intensity="8.0" name="Meldola"/>
  <station source="CFTI5med" netid="INTENSITY" code="IT_41840" lat="44.085" lon="12.107" intensity="8.0" name="Teodorano"/>
  <station source="CFTI5med" netid="INTENSITY" code="IT_41507" lat="44.115" lon="12.125" intensity="7.5" name="Polenta"/>
  <station source="CFTI5med" netid="INTENSITY" code="IT_41569" lat="44.138" lon="12.244" intensity="7.0" name="Cesena"/>
  <station source="CFTI5med" netid="INTENSITY" code="IT_41944" lat="44.144" lon="11.987" intensity="7.0" name="Fiumana"/>
  <station source="CFTI5med" netid="INTENSITY" code="IT_41710" lat="44.222" lon="12.040" intensity="7.0" name="Forlì"/>
  <station source="CFTI5med" netid="INTENSITY" code="IT_41780" lat="44.188" lon="12.126" intensity="7.0" name="Forlimpopoli"/>
  <station source="CFTI5med" netid="INTENSITY" code="IT_41530" lat="44.149" lon="11.925" intensity="7.0" name="Pieve Salutare"/>
  <station source="CFTI5med" netid="INTENSITY" code="IT_41949" lat="44.104" lon="11.981" intensity="7.0" name="Predappio"/>
  <station source="CFTI5med" netid="INTENSITY" code="IT_41831" lat="44.117" lon="12.000" intensity="7.0" name="Rocca delle Caminate"/>
  <station source="CFTI5med" netid="INTENSITY" code="IT_70720" lat="44.228" lon="12.114" intensity="7.0" name="Santa Maria delle Grazie di Fornò"/>
  <station source="CFTI5med" netid="INTENSITY" code="IT_41921" lat="44.082" lon="12.305" intensity="6.5" name="Montiano"/>
  <station source="CFTI5med" netid="INTENSITY" code="IT_41374" lat="44.418" lon="12.197" intensity="6.5" name="Ravenna"/>
  <station source="CFTI5med" netid="INTENSITY" code="IT_41531" lat="44.185" lon="11.960" intensity="6.5" name="Terra del Sole"/>
  <station source="CFTI5med" netid="INTENSITY" code="IT_41617" lat="44.007" lon="11.940" intensity="6.0" name="Civitella di Romagna"/>
  <station source="CFTI5med" netid="INTENSITY" code="IT_41197" lat="44.288" lon="11.881" intensity="6.0" name="Faenza"/>
  <station source="CFTI5med" netid="INTENSITY" code="IT_39777" lat="44.353" lon="11.714" intensity="6.0" name="Imola"/>
  <station source="CFTI5med" netid="INTENSITY" code="IT_42047" lat="44.060" lon="11.842" intensity="6.0" name="Rocca San Casciano"/>
  <station source="CFTI5med" netid="INTENSITY" code="IT_41439" lat="44.371" lon="12.033" intensity="6.0" name="Russi"/>
  <station source="CFTI5med" netid="INTENSITY" code="IT_41572" lat="44.101" lon="12.303" intensity="5.5" name="Calisese"/>
  <station source="CFTI5med" netid="INTENSITY" code="IT_40315" lat="44.615" lon="11.837" intensity="5.0" name="Argenta"/>
  <station source="CFTI5med" netid="INTENSITY" code="IT_40627" lat="44.835" lon="11.620" intensity="5.0" name="Ferrara"/>
  <station source="CFTI5med" netid="INTENSITY" code="IT_50397" lat="43.768" lon="12.882" intensity="4.0" name="Cartoceto"/>
  <station source="CFTI5med" netid="INTENSITY" code="IT_39524" lat="44.398" lon="11.590" intensity="4.0" name="Castel San Pietro Terme"/>
  <station source="CFTI5med" netid="INTENSITY" code="IT_38628" lat="44.647" lon="10.926" intensity="4.0" name="Modena"/>
  <station source="CFTI5med" netid="INTENSITY" code="IT_44294" lat="43.933" lon="10.915" intensity="4.0" name="Pistoia"/>
  <station source="CFTI5med" netid="INTENSITY" code="IT_36605" lat="44.801" lon="10.330" intensity="3.9" name="Parma"/>
  <station source="CFTI5med" netid="INTENSITY" code="IT_37794" lat="44.698" lon="10.631" intensity="3.9" name="Reggio nell'Emilia"/>
  <station source="CFTI5med" netid="INTENSITY" code="IT_51050" lat="43.726" lon="12.636" intensity="3.9" name="Urbino"/>
  <station source="CFTI5med" netid="INTENSITY" code="IT_28470" lat="45.438" lon="12.336" intensity="3.9" name="Venezia"/>
  <station source="CFTI5med" netid="INTENSITY" code="IT_25814" lat="45.548" lon="11.546" intensity="3.9" name="Vicenza"/>
  <station source="CFTI5med" netid="INTENSITY" code="IT_39296" lat="44.494" lon="11.343" intensity="3.0" name="Bologna"/>
  <station source="CFTI5med" netid="INTENSITY" code="IT_41119" lat="44.319" lon="11.799" intensity="3.0" name="Castel Bolognese"/>
  <station source="CFTI5med" netid="INTENSITY" code="IT_40433" lat="44.727" lon="11.289" intensity="3.0" name="Cento"/>
  <station source="CFTI5med" netid="INTENSITY" code="IT_45020" lat="43.773" lon="11.257" intensity="3.0" name="Firenze"/>
  <station source="CFTI5med" netid="INTENSITY" code="IT_29123" lat="45.407" lon="11.875" intensity="3.0" name="Padova"/>
  <station source="CFTI5med" netid="INTENSITY" code="IT_41984" lat="44.059" lon="12.568" intensity="3.0" name="Rimini"/>
  <station source="CFTI5med" netid="INTENSITY" code="IT_47956" lat="43.318" lon="11.332" intensity="3.0" name="Siena"/>
  <station source="CFTI5med" netid="INTENSITY" code="IT_25575" lat="45.651" lon="11.304" intensity="3.0" name="Valdagno"/>
</stationlist>
