<?xml version="1.0" encoding="UTF-8"?>
<stationlist reference="DBMI15v4" created="20250808064910">
  <station source="MOLAL008" netid="INTENSITY" code="GR_00971" lat="37.513" lon="22.374" intensity="6.5" name="Tripolis"/>
  <station source="MOLAL008" netid="INTENSITY" code="IT_65168" lat="38.051" lon="16.135" intensity="6.0" name="Africo (Africo Nuovo)"/>
  <station source="MOLAL008" netid="INTENSITY" code="IT_72179" lat="36.687" lon="15.132" intensity="5.6" name="Cozzo Spadaro [faro]"/>
  <station source="MOLAL008" netid="INTENSITY" code="IT_68032" lat="36.792" lon="14.706" intensity="5.5" name="Scicli"/>
  <station source="MOLAL008" netid="INTENSITY" code="IT_72208" lat="40.107" lon="18.520" intensity="5.1" name="Palascia [faro]"/>
  <station source="MOLAL008" netid="INTENSITY" code="IT_62648" lat="39.889" lon="18.331" intensity="5.0" name="Alessano"/>
  <station source="MOLAL008" netid="INTENSITY" code="GR_01287" lat="37.800" lon="21.350" intensity="5.0" name="Amaliada"/>
  <station source="MOLAL008" netid="INTENSITY" code="IT_62536" lat="40.637" lon="17.945" intensity="5.0" name="Brindisi"/>
  <station source="MOLAL008" netid="INTENSITY" code="IT_67985" lat="37.031" lon="14.702" intensity="5.0" name="Chiaramonte Gulfi"/>
  <station source="MOLAL008" netid="INTENSITY" code="IT_67833" lat="37.214" lon="14.636" intensity="5.0" name="Grammichele"/>
  <station source="MOLAL008" netid="INTENSITY" code="IT_66973" lat="38.185" lon="15.555" intensity="5.0" name="Messina"/>
  <station source="MOLAL008" netid="INTENSITY" code="IT_67861" lat="37.273" lon="14.793" intensity="5.0" name="Militello in Val di Catania"/>
  <station source="MOLAL008" netid="INTENSITY" code="IT_67868" lat="37.266" lon="14.691" intensity="5.0" name="Mineo"/>
  <station source="MOLAL008" netid="INTENSITY" code="IT_62588" lat="40.498" lon="17.642" intensity="5.0" name="Oria"/>
  <station source="MOLAL008" netid="INTENSITY" code="IT_62769" lat="40.144" lon="18.491" intensity="5.0" name="Otranto"/>
  <station source="MOLAL008" netid="INTENSITY" code="IT_67879" lat="37.326" lon="14.746" intensity="5.0" name="Palagonia"/>
  <station source="MOLAL008" netid="INTENSITY" code="GR_00109" lat="38.244" lon="21.734" intensity="5.0" name="Patras"/>
  <station source="MOLAL008" netid="INTENSITY" code="IT_65090" lat="38.598" lon="16.230" intensity="5.0" name="Soriano Calabro"/>
  <station source="MOLAL008" netid="INTENSITY" code="IT_62813" lat="39.981" lon="18.086" intensity="5.0" name="Taviano"/>
  <station source="MOLAL008" netid="INTENSITY" code="IT_67973" lat="37.162" lon="14.755" intensity="5.0" name="Vizzini"/>
  <station source="MOLAL008" netid="INTENSITY" code="IT_67776" lat="37.231" lon="14.520" intensity="4.5" name="Caltagirone"/>
  <station source="MOLAL008" netid="INTENSITY" code="IT_62126" lat="41.264" lon="15.898" intensity="4.5" name="Cerignola"/>
  <station source="MOLAL008" netid="INTENSITY" code="IT_62720" lat="40.353" lon="18.172" intensity="4.5" name="Lecce"/>
  <station source="MOLAL008" netid="INTENSITY" code="IT_65695" lat="38.108" lon="15.647" intensity="4.5" name="Reggio di Calabria"/>
  <station source="MOLAL008" netid="INTENSITY" code="IT_62843" lat="40.796" lon="15.940" intensity="4.0" name="Acerenza"/>
  <station source="MOLAL008" netid="INTENSITY" code="IT_63569" lat="39.952" lon="16.581" intensity="4.0" name="Amendolara"/>
  <station source="MOLAL008" netid="INTENSITY" code="IT_62441" lat="40.629" lon="16.935" intensity="4.0" name="Castellaneta"/>
  <station source="MOLAL008" netid="INTENSITY" code="IT_67809" lat="37.502" lon="15.087" intensity="4.0" name="Catania"/>
  <station source="MOLAL008" netid="INTENSITY" code="" lat="38.463" lon="23.599" intensity="4.0" name="Chalkida"/>
  <station source="MOLAL008" netid="INTENSITY" code="GR_00360" lat="39.624" lon="19.920" intensity="4.0" name="Corfu"/>
  <station source="MOLAL008" netid="INTENSITY" code="IT_62703" lat="40.055" lon="17.988" intensity="4.0" name="Gallipoli"/>
  <station source="MOLAL008" netid="INTENSITY" code="IT_62448" lat="40.578" lon="16.758" intensity="4.0" name="Ginosa"/>
  <station source="MOLAL008" netid="INTENSITY" code="IT_62340" lat="40.819" lon="16.420" intensity="4.0" name="Gravina in Puglia"/>
  <station source="MOLAL008" netid="INTENSITY" code="GR_00052" lat="38.364" lon="20.720" intensity="4.0" name="Ithaka (Vathi)"/>
  <station source="MOLAL008" netid="INTENSITY" code="GR_00053" lat="37.044" lon="22.116" intensity="4.0" name="Kalamai"/>
  <station source="MOLAL008" netid="INTENSITY" code="GR_00012" lat="38.179" lon="20.487" intensity="4.0" name="Kephalonia (Argostoli)"/>
  <station source="MOLAL008" netid="INTENSITY" code="IT_62162" lat="41.864" lon="15.353" intensity="4.0" name="Lesina"/>
  <station source="MOLAL008" netid="INTENSITY" code="IT_64908" lat="38.608" lon="16.068" intensity="4.0" name="Mileto"/>
  <station source="MOLAL008" netid="INTENSITY" code="IT_65559" lat="38.291" lon="15.985" intensity="4.0" name="Oppido Mamertina"/>
  <station source="MOLAL008" netid="INTENSITY" code="IT_65726" lat="38.487" lon="15.976" intensity="4.0" name="Rosarno"/>
  <station source="MOLAL008" netid="INTENSITY" code="GR_00128" lat="38.848" lon="20.715" intensity="4.0" name="Santa Maura [castle]"/>
  <station source="MOLAL008" netid="INTENSITY" code="IT_65826" lat="38.264" lon="15.878" intensity="4.0" name="Sinopoli (Superiore)"/>
  <station source="MOLAL008" netid="INTENSITY" code="GR_00135" lat="37.250" lon="21.013" intensity="4.0" name="Strofades"/>
  <station source="MOLAL008" netid="INTENSITY" code="IT_65135" lat="38.675" lon="15.899" intensity="4.0" name="Tropea"/>
  <station source="MOLAL008" netid="INTENSITY" code="IT_65154" lat="38.673" lon="16.103" intensity="4.0" name="Vibo Valentia"/>
  <station source="MOLAL008" netid="INTENSITY" code="IT_68034" lat="36.950" lon="14.532" intensity="4.0" name="Vittoria"/>
  <station source="MOLAL008" netid="INTENSITY" code="AL_00008" lat="40.485" lon="19.519" intensity="4.0" name="Vlorë"/>
  <station source="MOLAL008" netid="INTENSITY" code="GR_00160" lat="37.780" lon="20.896" intensity="4.0" name="Zakynthos"/>
  <station source="MOLAL008" netid="INTENSITY" code="IT_67716" lat="37.613" lon="15.166" intensity="3.9" name="Acireale"/>
  <station source="MOLAL008" netid="INTENSITY" code="GR_00306" lat="38.654" lon="22.996" intensity="3.9" name="Atalanti"/>
  <station source="MOLAL008" netid="INTENSITY" code="GR_00312" lat="37.976" lon="23.733" intensity="3.9" name="Athens"/>
  <station source="MOLAL008" netid="INTENSITY" code="GR_00064" lat="37.939" lon="22.927" intensity="3.9" name="Corinth"/>
  <station source="MOLAL008" netid="INTENSITY" code="IT_62146" lat="41.462" lon="15.545" intensity="3.9" name="Foggia"/>
  <station source="MOLAL008" netid="INTENSITY" code="IT_64580" lat="38.920" lon="16.562" intensity="3.9" name="Gagliano"/>
  <station source="MOLAL008" netid="INTENSITY" code="MT_00002" lat="35.895" lon="14.512" intensity="3.9" name="La Valletta"/>
  <station source="MOLAL008" netid="INTENSITY" code="GR_00073" lat="38.900" lon="22.433" intensity="3.9" name="Lamia"/>
  <station source="MOLAL008" netid="INTENSITY" code="IT_62467" lat="40.705" lon="17.336" intensity="3.9" name="Martina Franca"/>
  <station source="MOLAL008" netid="INTENSITY" code="IT_62473" lat="40.589" lon="17.113" intensity="3.9" name="Massafra"/>
  <station source="MOLAL008" netid="INTENSITY" code="IT_63426" lat="40.667" lon="16.611" intensity="3.9" name="Matera"/>
  <station source="MOLAL008" netid="INTENSITY" code="IT_62485" lat="40.634" lon="17.037" intensity="3.9" name="Mottola"/>
  <station source="MOLAL008" netid="INTENSITY" code="IT_62603" lat="40.729" lon="17.577" intensity="3.9" name="Ostuni"/>
  <station source="MOLAL008" netid="INTENSITY" code="IT_67209" lat="38.172" lon="15.414" intensity="3.9" name="Rometta"/>
  <station source="MOLAL008" netid="INTENSITY" code="IT_62415" lat="41.116" lon="16.486" intensity="3.9" name="Ruvo di Puglia"/>
  <station source="MOLAL008" netid="INTENSITY" code="IT_62694" lat="39.796" lon="18.369" intensity="3.9" name="Santa Maria di Leuca"/>
  <station source="MOLAL008" netid="INTENSITY" code="GR_00264" lat="37.450" lon="24.936" intensity="3.9" name="Syros"/>
  <station source="MOLAL008" netid="INTENSITY" code="IT_62526" lat="40.471" lon="17.243" intensity="3.9" name="Taranto"/>
  <station source="MOLAL008" netid="INTENSITY" code="IT_62258" lat="41.882" lon="16.180" intensity="3.9" name="Vieste"/>
  <station source="MOLAL008" netid="INTENSITY" code="IT_63399" lat="40.407" lon="16.688" intensity="3.5" name="Bernalda"/>
  <station source="MOLAL008" netid="INTENSITY" code="IT_62102" lat="41.251" lon="15.342" intensity="3.5" name="Bovino"/>
  <station source="MOLAL008" netid="INTENSITY" code="IT_61034" lat="40.927" lon="15.177" intensity="3.5" name="Sant'Angelo dei Lombardi"/>
  <station source="MOLAL008" netid="INTENSITY" code="AL_00059" lat="42.068" lon="19.513" intensity="3.5" name="Shkodër"/>
  <station source="MOLAL008" netid="INTENSITY" code="IT_65131" lat="38.947" lon="16.509" intensity="3.5" name="Tiriolo"/>
  <station source="MOLAL008" netid="INTENSITY" code="IT_67984" lat="37.025" lon="14.494" intensity="3.0" name="Acate"/>
  <station source="MOLAL008" netid="INTENSITY" code="IT_68043" lat="37.231" lon="15.221" intensity="3.0" name="Augusta"/>
  <station source="MOLAL008" netid="INTENSITY" code="IT_64526" lat="38.568" lon="16.524" intensity="3.0" name="Badolato"/>
  <station source="MOLAL008" netid="INTENSITY" code="IT_62294" lat="41.129" lon="16.869" intensity="3.0" name="Bari"/>
  <station source="MOLAL008" netid="INTENSITY" code="IT_63752" lat="39.814" lon="16.202" intensity="3.0" name="Castrovillari"/>
  <station source="MOLAL008" netid="INTENSITY" code="IT_63781" lat="39.516" lon="15.941" intensity="3.0" name="Cetraro"/>
  <station source="MOLAL008" netid="INTENSITY" code="IT_52485" lat="43.162" lon="13.718" intensity="3.0" name="Fermo"/>
  <station source="MOLAL008" netid="INTENSITY" code="IT_58749" lat="41.800" lon="14.911" intensity="3.0" name="Larino"/>
  <station source="MOLAL008" netid="INTENSITY" code="IT_67840" lat="37.828" lon="14.866" intensity="3.0" name="Maletto"/>
  <station source="MOLAL008" netid="INTENSITY" code="IT_63156" lat="40.994" lon="15.653" intensity="3.0" name="Melfi"/>
  <station source="MOLAL008" netid="INTENSITY" code="IT_68091" lat="36.715" lon="15.091" intensity="3.0" name="Pachino"/>
  <station source="MOLAL008" netid="INTENSITY" code="IT_61719" lat="40.107" lon="15.234" intensity="3.0" name="Pisciotta"/>
  <station source="MOLAL008" netid="INTENSITY" code="IT_63465" lat="40.514" lon="16.549" intensity="3.0" name="Pomarico"/>
  <station source="MOLAL008" netid="INTENSITY" code="IT_62231" lat="41.929" lon="15.885" intensity="3.0" name="Rodi Garganico"/>
  <station source="MOLAL008" netid="INTENSITY" code="IT_62243" lat="41.685" lon="15.381" intensity="3.0" name="San Severo"/>
  <station source="MOLAL008" netid="INTENSITY" code="IT_62500" lat="40.403" lon="17.557" intensity="3.0" name="Sava"/>
  <station source="MOLAL008" netid="INTENSITY" code="IT_61091" lat="40.829" lon="14.849" intensity="3.0" name="Solofra"/>
  <station source="MOLAL008" netid="INTENSITY" code="IT_68109" lat="37.156" lon="15.027" intensity="3.0" name="Sortino"/>
  <station source="MOLAL008" netid="INTENSITY" code="IT_62251" lat="41.356" lon="16.088" intensity="3.0" name="Trinitapoli"/>
  <station source="MOLAL008" netid="INTENSITY" code="IT_51367" lat="43.512" lon="13.622" intensity="2.5" name="Numana"/>
  <station source="MOLAL008" netid="INTENSITY" code="IT_51703" lat="43.307" lon="13.730" intensity="2.0" name="Civitanova Marche"/>
  <station source="MOLAL008" netid="INTENSITY" code="IT_62356" lat="41.086" lon="16.079" intensity="2.0" name="Minervino Murge"/>
  <station source="MOLAL008" netid="INTENSITY" code="IT_63514" lat="39.491" lon="16.386" intensity="1.0" name="Acri"/>
  <station source="MOLAL008" netid="INTENSITY" code="IT_67589" lat="37.188" lon="14.184" intensity="1.0" name="Butera"/>
  <station source="MOLAL008" netid="INTENSITY" code="IT_66712" lat="38.023" lon="14.441" intensity="1.0" name="Caronia"/>
  <station source="MOLAL008" netid="INTENSITY" code="IT_61391" lat="40.279" lon="14.953" intensity="1.0" name="Castellabate"/>
  <station source="MOLAL008" netid="INTENSITY" code="IT_62119" lat="41.560" lon="14.980" intensity="1.0" name="Celenza Valfortore"/>
  <station source="MOLAL008" netid="INTENSITY" code="IT_60679" lat="41.021" lon="14.617" intensity="1.0" name="Cervinara (Trescine)"/>
  <station source="MOLAL008" netid="INTENSITY" code="ME_00021" lat="42.392" lon="18.922" intensity="1.0" name="Cetinje"/>
  <station source="MOLAL008" netid="INTENSITY" code="IT_57196" lat="42.518" lon="14.060" intensity="1.0" name="Città Sant'Angelo"/>
  <station source="MOLAL008" netid="INTENSITY" code="IT_64653" lat="38.967" lon="16.782" intensity="1.0" name="Cropani"/>
  <station source="MOLAL008" netid="INTENSITY" code="IT_61486" lat="40.617" lon="15.055" intensity="1.0" name="Eboli"/>
  <station source="MOLAL008" netid="INTENSITY" code="IT_63564" lat="39.956" lon="16.618" intensity="1.0" name="Falconara"/>
  <station source="MOLAL008" netid="INTENSITY" code="IT_64748" lat="38.783" lon="16.292" intensity="1.0" name="Filadelfia"/>
  <station source="MOLAL008" netid="INTENSITY" code="IT_65370" lat="38.271" lon="16.220" intensity="1.0" name="Gerace"/>
  <station source="MOLAL008" netid="INTENSITY" code="IT_56757" lat="42.751" lon="13.958" intensity="1.0" name="Giulianova"/>
  <station source="MOLAL008" netid="INTENSITY" code="IT_67532" lat="37.402" lon="13.701" intensity="1.0" name="Grotte"/>
  <station source="MOLAL008" netid="INTENSITY" code="GR_00049" lat="39.667" lon="20.850" intensity="1.0" name="Ioánnina"/>
  <station source="MOLAL008" netid="INTENSITY" code="IT_66900" lat="38.467" lon="14.955" intensity="1.0" name="Lipari"/>
  <station source="MOLAL008" netid="INTENSITY" code="IT_65473" lat="37.920" lon="15.784" intensity="1.0" name="Melito di Porto Salvo"/>
  <station source="MOLAL008" netid="INTENSITY" code="MK_00007" lat="41.034" lon="21.338" intensity="1.0" name="Monastir-Bitola"/>
  <station source="MOLAL008" netid="INTENSITY" code="MK_00007" lat="41.034" lon="21.338" intensity="1.0" name="Monastir-Bitola"/>
  <station source="MOLAL008" netid="INTENSITY" code="IT_63169" lat="40.753" lon="15.486" intensity="1.0" name="Muro Lucano"/>
  <station source="MOLAL008" netid="INTENSITY" code="IT_67545" lat="37.192" lon="13.762" intensity="1.0" name="Palma di Montechiaro"/>
  <station source="MOLAL008" netid="INTENSITY" code="IT_66592" lat="37.797" lon="14.108" intensity="1.0" name="Petralia Soprana"/>
  <station source="MOLAL008" netid="INTENSITY" code="IT_67682" lat="37.419" lon="14.137" intensity="1.0" name="Pietraperzia"/>
  <station source="MOLAL008" netid="INTENSITY" code="IT_63466" lat="40.171" lon="16.526" intensity="1.0" name="Rotondella"/>
  <station source="MOLAL008" netid="INTENSITY" code="IT_67147" lat="38.556" lon="14.844" intensity="1.0" name="Salina"/>
  <station source="MOLAL008" netid="INTENSITY" code="IT_52745" lat="42.955" lon="13.880" intensity="1.0" name="San Benedetto del Tronto"/>
  <station source="MOLAL008" netid="INTENSITY" code="IT_63292" lat="40.190" lon="16.075" intensity="1.0" name="San Chirico Raparo"/>
  <station source="MOLAL008" netid="INTENSITY" code="IT_63470" lat="40.486" lon="16.250" intensity="1.0" name="San Mauro Forte"/>
  <station source="MOLAL008" netid="INTENSITY" code="IT_61902" lat="40.456" lon="15.344" intensity="1.0" name="Sant'Angelo a Fasanella"/>
  <station source="MOLAL008" netid="INTENSITY" code="IT_64431" lat="39.814" lon="15.792" intensity="1.0" name="Scalea"/>
  <station source="MOLAL008" netid="INTENSITY" code="IT_64448" lat="39.670" lon="16.311" intensity="1.0" name="Spezzano Albanese"/>
  <station source="MOLAL008" netid="INTENSITY" code="IT_67402" lat="37.852" lon="15.286" intensity="1.0" name="Taormina"/>
  <station source="MOLAL008" netid="INTENSITY" code="IT_58849" lat="42.000" lon="14.993" intensity="1.0" name="Termoli"/>
  <station source="MOLAL008" netid="INTENSITY" code="IT_67689" lat="37.783" lon="14.599" intensity="1.0" name="Troina"/>
  <station source="MOLAL008" netid="INTENSITY" code="IT_58243" lat="42.117" lon="14.708" intensity="1.0" name="Vasto"/>
  <station source="MOLAL008" netid="INTENSITY" code="IT_62066" lat="40.099" lon="15.584" intensity="1.0" name="Vibonati"/>
  <station source="MOLAL008" netid="INTENSITY" code="IT_67650" lat="37.654" lon="13.843" intensity="1.0" name="Villalba"/>
</stationlist>
