<?xml version="1.0" encoding="UTF-8"?>
<stationlist reference="DBMI15v4" created="20250821141235">
  <station source="SHEB977" netid="INTENSITY" code="RO_00033" lat="44.857" lon="24.885" intensity="8.5" name="Pitesti"/>
  <station source="SHEB977" netid="INTENSITY" code="RO_00010" lat="45.274" lon="27.964" intensity="8.0" name="Braila"/>
  <station source="SHEB977" netid="INTENSITY" code="RO_00013" lat="44.973" lon="26.074" intensity="8.0" name="Bucov"/>
  <station source="SHEB977" netid="INTENSITY" code="RO_00012" lat="44.431" lon="26.121" intensity="8.0" name="Bucuresti"/>
  <station source="SHEB977" netid="INTENSITY" code="RO_00020" lat="45.129" lon="25.740" intensity="8.0" name="Cympina"/>
  <station source="SHEB977" netid="INTENSITY" code="RO_00034" lat="44.940" lon="26.035" intensity="8.0" name="Ploiesti"/>
  <station source="SHEB977" netid="INTENSITY" code="RO_00037" lat="45.382" lon="27.063" intensity="8.0" name="Rymnicu Sarat"/>
  <station source="SHEB977" netid="INTENSITY" code="RO_00019" lat="44.318" lon="23.793" intensity="7.5" name="Craiova"/>
  <station source="SHEB977" netid="INTENSITY" code="RO_00023" lat="45.701" lon="27.188" intensity="7.5" name="Focsani"/>
  <station source="SHEB977" netid="INTENSITY" code="UA_00008" lat="45.687" lon="28.612" intensity="7.0" name="Bolhgrad"/>
  <station source="SHEB977" netid="INTENSITY" code="RO_00011" lat="45.642" lon="25.589" intensity="7.0" name="BraÅŸov"/>
  <station source="SHEB977" netid="INTENSITY" code="RO_00015" lat="45.993" lon="24.534" intensity="7.0" name="Byrghis"/>
  <station source="SHEB977" netid="INTENSITY" code="MD_00004" lat="47.028" lon="28.838" intensity="7.0" name="Chisinau"/>
  <station source="SHEB977" netid="INTENSITY" code="RO_00035" lat="45.720" lon="25.777" intensity="7.0" name="Prejmer"/>
  <station source="SHEB977" netid="INTENSITY" code="UA_00041" lat="45.466" lon="28.282" intensity="7.0" name="Reni"/>
  <station source="SHEB977" netid="INTENSITY" code="RO_00041" lat="45.796" lon="24.151" intensity="7.0" name="Sibiu"/>
  <station source="SHEB977" netid="INTENSITY" code="RO_00043" lat="46.220" lon="24.791" intensity="7.0" name="Sighisoara"/>
  <station source="SHEB977" netid="INTENSITY" code="MD_00001" lat="47.755" lon="27.911" intensity="6.5" name="Bel'tsy"/>
  <station source="SHEB977" netid="INTENSITY" code="UA_00018" lat="45.345" lon="28.842" intensity="6.5" name="Izmayil"/>
  <station source="SHEB977" netid="INTENSITY" code="UA_00023" lat="48.506" lon="26.498" intensity="6.5" name="Khotin"/>
  <station source="SHEB977" netid="INTENSITY" code="UA_00007" lat="46.200" lon="30.349" intensity="6.0" name="Bilhorod-Dnistrovskyi"/>
  <station source="SHEB977" netid="INTENSITY" code="RO_00054" lat="47.170" lon="27.583" intensity="6.0" name="Iasi"/>
  <station source="SHEB977" netid="INTENSITY" code="UA_00034" lat="46.617" lon="31.551" intensity="6.0" name="Ochakiv"/>
  <station source="SHEB977" netid="INTENSITY" code="UA_00035" lat="46.479" lon="30.727" intensity="6.0" name="Odessa"/>
  <station source="SHEB977" netid="INTENSITY" code="MD_00011" lat="47.387" lon="28.825" intensity="5.5" name="Orhei"/>
  <station source="SHEB977" netid="INTENSITY" code="MD_00012" lat="48.156" lon="28.305" intensity="5.5" name="Soroka"/>
  <station source="SHEB977" netid="INTENSITY" code="UA_00011" lat="48.289" lon="25.956" intensity="5.0" name="Chernovtsy"/>
  <station source="SHEB977" netid="INTENSITY" code="UA_00038" lat="49.592" lon="34.550" intensity="5.0" name="Poltava"/>
  <station source="SHEB977" netid="INTENSITY" code="UA_00042" lat="44.957" lon="34.095" intensity="5.0" name="Simferopol'"/>
  <station source="SHEB977" netid="INTENSITY" code="UA_00059" lat="48.641" lon="25.739" intensity="5.0" name="Zaleshchiki"/>
  <station source="SHEB977" netid="INTENSITY" code="UA_00019" lat="48.679" lon="26.591" intensity="4.5" name="Kamenets-Podol'skiy"/>
  <station source="SHEB977" netid="INTENSITY" code="UA_00025" lat="50.450" lon="30.522" intensity="4.5" name="Kiev"/>
  <station source="SHEB977" netid="INTENSITY" code="UA_00030" lat="49.843" lon="24.026" intensity="4.5" name="L'viv"/>
  <station source="SHEB977" netid="INTENSITY" code="UA_00045" lat="49.551" lon="25.605" intensity="4.5" name="Ternopil"/>
  <station source="SHEB977" netid="INTENSITY" code="UA_00004" lat="49.903" lon="28.601" intensity="4.0" name="Berdichev"/>
  <station source="SHEB977" netid="INTENSITY" code="RU_00001" lat="51.742" lon="36.193" intensity="4.0" name="Kursk"/>
  <station source="SHEB977" netid="INTENSITY" code="RU_00002" lat="51.650" lon="35.279" intensity="3.9" name="L'gov"/>
  <station source="SHEB977" netid="INTENSITY" code="RU_00004" lat="52.978" lon="36.075" intensity="3.9" name="Orel"/>
  <station source="SHEB977" netid="INTENSITY" code="UA_00022" lat="46.649" lon="32.601" intensity="3.0" name="Kherson"/>
  <station source="SHEB977" netid="INTENSITY" code="RU_00007" lat="47.234" lon="38.911" intensity="3.0" name="Taganrog"/>
</stationlist>
