<?xml version="1.0" encoding="UTF-8"?>
<stationlist reference="DBMI15v4" created="20250808064907">
  <station source="CFTI5med" netid="INTENSITY" code="IT_30609" lat="46.298" lon="12.801" intensity="9.0" name="Tramonti di Mezzo"/>
  <station source="CFTI5med" netid="INTENSITY" code="IT_70098" lat="46.350" lon="12.914" intensity="8.5" name="Pozzis"/>
  <station source="CFTI5med" netid="INTENSITY" code="IT_72047" lat="46.310" lon="12.866" intensity="8.5" name="San Vincenzo"/>
  <station source="CFTI5med" netid="INTENSITY" code="IT_30600" lat="46.310" lon="12.789" intensity="8.0" name="Tramonti di Sopra"/>
  <station source="CFTI5med" netid="INTENSITY" code="IT_30610" lat="46.284" lon="12.796" intensity="8.0" name="Tramonti di Sotto"/>
  <station source="CFTI5med" netid="INTENSITY" code="IT_31628" lat="46.398" lon="12.851" intensity="7.5" name="Socchieve"/>
  <station source="CFTI5med" netid="INTENSITY" code="IT_31741" lat="46.398" lon="13.019" intensity="7.0" name="Tolmezzo"/>
  <station source="CFTI5med" netid="INTENSITY" code="IT_31773" lat="46.315" lon="13.053" intensity="6.5" name="Alesso"/>
  <station source="CFTI5med" netid="INTENSITY" code="IT_31156" lat="46.095" lon="13.397" intensity="6.5" name="Bottenicco"/>
  <station source="CFTI5med" netid="INTENSITY" code="IT_30779" lat="46.368" lon="13.040" intensity="6.5" name="Cavazzo Carnico"/>
  <station source="CFTI5med" netid="INTENSITY" code="IT_30808" lat="46.093" lon="13.431" intensity="6.5" name="Cividale del Friuli"/>
  <station source="CFTI5med" netid="INTENSITY" code="IT_30735" lat="46.324" lon="13.084" intensity="6.5" name="Interneppo"/>
  <station source="CFTI5med" netid="INTENSITY" code="IT_32084" lat="45.650" lon="13.772" intensity="6.0" name="Trieste"/>
  <station source="CFTI5med" netid="INTENSITY" code="IT_31648" lat="46.512" lon="12.992" intensity="5.5" name="Sutrio"/>
  <station source="CFTI5med" netid="INTENSITY" code="IT_22568" lat="45.432" lon="11.193" intensity="5.0" name="Colognola ai Colli"/>
  <station source="CFTI5med" netid="INTENSITY" code="IT_29123" lat="45.407" lon="11.875" intensity="5.0" name="Padova"/>
  <station source="CFTI5med" netid="INTENSITY" code="IT_25814" lat="45.548" lon="11.546" intensity="5.0" name="Vicenza"/>
  <station source="CFTI5med" netid="INTENSITY" code="IT_23679" lat="45.439" lon="10.994" intensity="4.0" name="Verona"/>
  <station source="CFTI5med" netid="INTENSITY" code="AT_00245" lat="47.267" lon="11.403" intensity="3.9" name="Innsbruck"/>
</stationlist>
