<?xml version="1.0" encoding="UTF-8"?>
<stationlist reference="DBMI15v4" created="20250808065340">
  <station source="UNITH003" netid="INTENSITY" code="GR_03038" lat="37.085" lon="21.898" intensity="8.0" name="Manessis"/>
  <station source="UNITH003" netid="INTENSITY" code="GR_02024" lat="37.051" lon="22.008" intensity="8.0" name="Messini"/>
  <station source="UNITH003" netid="INTENSITY" code="GR_00188" lat="37.070" lon="21.830" intensity="7.0" name="Agios Ioannis"/>
  <station source="UNITH003" netid="INTENSITY" code="GR_00535" lat="37.220" lon="22.020" intensity="7.0" name="Katsaros"/>
  <station source="UNITH003" netid="INTENSITY" code="GR_00687" lat="37.217" lon="21.967" intensity="7.0" name="Meligalas"/>
  <station source="UNITH003" netid="INTENSITY" code="GR_00053" lat="37.044" lon="22.116" intensity="6.0" name="Kalamai"/>
  <station source="UNITH003" netid="INTENSITY" code="GR_00512" lat="37.380" lon="21.720" intensity="6.0" name="Karyai"/>
</stationlist>
