<?xml version="1.0" encoding="UTF-8"?>
<stationlist reference="DBMI15v4" created="20250808065339">
  <station source="UNITH003" netid="INTENSITY" code="GR_00668" lat="36.800" lon="22.520" intensity="9.0" name="Maroulia"/>
  <station source="UNITH003" netid="INTENSITY" code="GR_01360" lat="36.667" lon="22.383" intensity="8.0" name="Areopolis"/>
  <station source="UNITH003" netid="INTENSITY" code="GR_02185" lat="36.700" lon="22.370" intensity="8.0" name="Oitylon"/>
  <station source="UNITH003" netid="INTENSITY" code="GR_00072" lat="36.149" lon="22.988" intensity="6.0" name="Kythira"/>
  <station source="UNITH003" netid="INTENSITY" code="GR_00687" lat="37.217" lon="21.967" intensity="6.0" name="Meligalas"/>
  <station source="UNITH003" netid="INTENSITY" code="GR_00023" lat="35.514" lon="24.018" intensity="5.0" name="Chania"/>
</stationlist>
