<?xml version="1.0" encoding="UTF-8"?>
<stationlist reference="DBMI15v4" created="20250821143732">
  <station source="BGMDB010" netid="INTENSITY" code="BG_00149" lat="42.270" lon="23.125" intensity="5.5" name="Dupnitsa"/>
  <station source="BGMDB010" netid="INTENSITY" code="BG_00192" lat="42.133" lon="23.330" intensity="5.5" name="Rila Monast"/>
  <station source="BGMDB010" netid="INTENSITY" code="RS_00007" lat="42.500" lon="22.470" intensity="5.0" name="Bossilegrad"/>
  <station source="BGMDB010" netid="INTENSITY" code="BG_00193" lat="42.333" lon="23.550" intensity="4.5" name="Samokov"/>
  <station source="BGMDB010" netid="INTENSITY" code="BG_00135" lat="41.940" lon="24.210" intensity="4.0" name="Batak"/>
  <station source="BGMDB010" netid="INTENSITY" code="BG_00186" lat="42.030" lon="24.300" intensity="4.0" name="Pestera"/>
  <station source="BGMDB010" netid="INTENSITY" code="BG_00191" lat="42.560" lon="22.975" intensity="4.0" name="Radomir"/>
  <station source="BGMDB010" netid="INTENSITY" code="BG_00200" lat="42.285" lon="24.030" intensity="4.0" name="Vetren"/>
  <station source="BGMDB010" netid="INTENSITY" code="BG_00145" lat="42.440" lon="23.130" intensity="3.9" name="Dol Dykanya"/>
  <station source="BGMDB010" netid="INTENSITY" code="BG_00002" lat="42.143" lon="24.750" intensity="3.5" name="Plovdiv"/>
  <station source="BGMDB010" netid="INTENSITY" code="BG_00195" lat="41.733" lon="24.683" intensity="3.0" name="Tchepelare"/>
</stationlist>
