<?xml version="1.0" encoding="UTF-8"?>
<stationlist reference="DBMI15v4" created="20250821142402">
  <station source="TAXE003" netid="INTENSITY" code="TR_00185" lat="38.323" lon="26.306" intensity="9.0" name="Cesme"/>
  <station source="TAXE003" netid="INTENSITY" code="GR_00024" lat="38.367" lon="26.133" intensity="9.0" name="Chios"/>
  <station source="TAXE003" netid="INTENSITY" code="TR_00188" lat="38.293" lon="26.279" intensity="9.0" name="Ciftlikkoyu"/>
  <station source="TAXE003" netid="INTENSITY" code="GR_00417" lat="38.233" lon="26.083" intensity="9.0" name="Flatsia"/>
  <station source="TAXE003" netid="INTENSITY" code="GR_00470" lat="38.233" lon="26.050" intensity="9.0" name="Kalamoti"/>
  <station source="TAXE003" netid="INTENSITY" code="GR_00478" lat="38.300" lon="26.100" intensity="9.0" name="Kallimasia"/>
  <station source="TAXE003" netid="INTENSITY" code="GR_01744" lat="38.267" lon="26.100" intensity="9.0" name="Katarraktis"/>
  <station source="TAXE003" netid="INTENSITY" code="GR_00569" lat="38.250" lon="26.067" intensity="9.0" name="Koini"/>
  <station source="TAXE003" netid="INTENSITY" code="GR_00692" lat="38.283" lon="26.083" intensity="9.0" name="Mesa Dhidhima"/>
  <station source="TAXE003" netid="INTENSITY" code="GR_00749" lat="38.233" lon="26.100" intensity="9.0" name="Nenita"/>
  <station source="TAXE003" netid="INTENSITY" code="GR_00797" lat="38.233" lon="26.067" intensity="9.0" name="Patrika"/>
  <station source="TAXE003" netid="INTENSITY" code="GR_00799" lat="38.267" lon="26.083" intensity="9.0" name="Payis"/>
  <station source="TAXE003" netid="INTENSITY" code="GR_00954" lat="38.280" lon="26.070" intensity="9.0" name="Tholopotamion"/>
  <station source="TAXE003" netid="INTENSITY" code="GR_01013" lat="38.250" lon="26.083" intensity="9.0" name="Vounos"/>
  <station source="TAXE003" netid="INTENSITY" code="TR_00154" lat="38.283" lon="26.375" intensity="8.0" name="Alacati"/>
  <station source="TAXE003" netid="INTENSITY" code="GR_00250" lat="38.400" lon="26.017" intensity="8.0" name="Anavatos"/>
  <station source="TAXE003" netid="INTENSITY" code="GR_00292" lat="38.250" lon="26.033" intensity="8.0" name="Armolia"/>
  <station source="TAXE003" netid="INTENSITY" code="GR_00320" lat="38.388" lon="26.017" intensity="8.0" name="Avgonima"/>
  <station source="TAXE003" netid="INTENSITY" code="GR_00332" lat="38.317" lon="26.050" intensity="8.0" name="Ayios Yeoryios Sikousis"/>
  <station source="TAXE003" netid="INTENSITY" code="GR_00371" lat="38.350" lon="26.083" intensity="8.0" name="Dhafnon"/>
  <station source="TAXE003" netid="INTENSITY" code="GR_00505" lat="38.383" lon="26.100" intensity="8.0" name="Kariai"/>
  <station source="TAXE003" netid="INTENSITY" code="GR_00553" lat="38.334" lon="26.097" intensity="8.0" name="Khalkion"/>
  <station source="TAXE003" netid="INTENSITY" code="GR_00610" lat="38.467" lon="26.117" intensity="8.0" name="Langadha"/>
  <station source="TAXE003" netid="INTENSITY" code="GR_00636" lat="38.333" lon="26.000" intensity="8.0" name="Lithion"/>
  <station source="TAXE003" netid="INTENSITY" code="GR_00756" lat="38.300" lon="26.117" intensity="8.0" name="Neochori"/>
  <station source="TAXE003" netid="INTENSITY" code="TR_00297" lat="38.288" lon="26.313" intensity="8.0" name="Ovacik"/>
  <station source="TAXE003" netid="INTENSITY" code="GR_00823" lat="38.233" lon="26.000" intensity="8.0" name="Piryion"/>
  <station source="TAXE003" netid="INTENSITY" code="TR_00303" lat="38.317" lon="26.417" intensity="8.0" name="Reisdere"/>
  <station source="TAXE003" netid="INTENSITY" code="TR_00303" lat="38.317" lon="26.417" intensity="8.0" name="Reisdere"/>
  <station source="TAXE003" netid="INTENSITY" code="GR_01041" lat="38.313" lon="26.132" intensity="8.0" name="Thymiana"/>
  <station source="TAXE003" netid="INTENSITY" code="TR_00329" lat="38.271" lon="26.257" intensity="8.0" name="Tursite"/>
  <station source="TAXE003" netid="INTENSITY" code="GR_00991" lat="38.333" lon="26.117" intensity="8.0" name="Vasileonoikon"/>
  <station source="TAXE003" netid="INTENSITY" code="GR_00998" lat="38.317" lon="26.100" intensity="8.0" name="Vaviloi"/>
  <station source="TAXE003" netid="INTENSITY" code="GR_01001" lat="38.333" lon="26.083" intensity="8.0" name="Ververaton"/>
  <station source="TAXE003" netid="INTENSITY" code="GR_01002" lat="38.300" lon="26.017" intensity="8.0" name="Vessa"/>
  <station source="TAXE003" netid="INTENSITY" code="GR_01021" lat="38.417" lon="26.133" intensity="8.0" name="Vrondadhos"/>
  <station source="TAXE003" netid="INTENSITY" code="GR_01040" lat="38.333" lon="26.083" intensity="8.0" name="Zifias"/>
  <station source="TAXE003" netid="INTENSITY" code="GR_00235" lat="38.570" lon="26.037" intensity="7.0" name="Amadhes"/>
  <station source="TAXE003" netid="INTENSITY" code="GR_00329" lat="38.567" lon="25.867" intensity="7.0" name="Ayion Gala"/>
  <station source="TAXE003" netid="INTENSITY" code="GR_00337" lat="38.547" lon="25.931" intensity="7.0" name="Chalandra"/>
  <station source="TAXE003" netid="INTENSITY" code="GR_00398" lat="38.283" lon="25.983" intensity="7.0" name="Elata"/>
  <station source="TAXE003" netid="INTENSITY" code="GR_01719" lat="38.520" lon="26.070" intensity="7.0" name="Kardamyla"/>
  <station source="TAXE003" netid="INTENSITY" code="GR_00621" lat="38.567" lon="25.950" intensity="7.0" name="Leptopodha"/>
  <station source="TAXE003" netid="INTENSITY" code="GR_00700" lat="38.267" lon="25.917" intensity="7.0" name="Mesta"/>
  <station source="TAXE003" netid="INTENSITY" code="GR_00772" lat="38.250" lon="25.933" intensity="7.0" name="Olimboi"/>
  <station source="TAXE003" netid="INTENSITY" code="GR_00825" lat="38.483" lon="26.050" intensity="7.0" name="Pitious"/>
  <station source="TAXE003" netid="INTENSITY" code="GR_00382" lat="38.473" lon="25.978" intensity="6.0" name="Diefchá"/>
  <station source="TAXE003" netid="INTENSITY" code="TR_00061" lat="38.670" lon="26.756" intensity="6.0" name="Foça"/>
  <station source="TAXE003" netid="INTENSITY" code="GR_00422" lat="38.518" lon="25.999" intensity="6.0" name="Fyta"/>
  <station source="TAXE003" netid="INTENSITY" code="GR_00820" lat="38.500" lon="25.917" intensity="6.0" name="Pirama"/>
  <station source="TAXE003" netid="INTENSITY" code="GR_00824" lat="38.533" lon="25.950" intensity="6.0" name="Pispilounda"/>
  <station source="TAXE003" netid="INTENSITY" code="GR_00264" lat="37.450" lon="24.936" intensity="6.0" name="Syros"/>
  <station source="TAXE003" netid="INTENSITY" code="GR_01006" lat="38.483" lon="25.917" intensity="6.0" name="Volissos"/>
  <station source="TAXE003" netid="INTENSITY" code="TR_00079" lat="38.416" lon="27.137" intensity="5.0" name="Izmir"/>
  <station source="TAXE003" netid="INTENSITY" code="GR_00100" lat="39.106" lon="26.557" intensity="5.0" name="Mytilini"/>
  <station source="TAXE003" netid="INTENSITY" code="GR_00126" lat="37.757" lon="26.976" intensity="5.0" name="Samos"/>
  <station source="TAXE003" netid="INTENSITY" code="GR_00957" lat="37.538" lon="25.164" intensity="4.0" name="Tinos"/>
  <station source="TAXE003" netid="INTENSITY" code="GR_00312" lat="37.976" lon="23.733" intensity="3.5" name="Athens"/>
  <station source="TAXE003" netid="INTENSITY" code="GR_00506" lat="38.017" lon="24.417" intensity="3.5" name="Karistos"/>
</stationlist>
