<?xml version="1.0" encoding="UTF-8"?>
<stationlist reference="DBMI15v4" created="20250808064908">
  <station source="CFTI5med" netid="INTENSITY" code="IT_63340" lat="40.582" lon="15.675" intensity="9.0" name="Tito"/>
  <station source="CFTI5med" netid="INTENSITY" code="IT_63228" lat="40.638" lon="15.802" intensity="8.0" name="Potenza"/>
  <station source="CFTI5med" netid="INTENSITY" code="IT_63327" lat="40.543" lon="15.639" intensity="8.0" name="Satriano di Lucania"/>
  <station source="CFTI5med" netid="INTENSITY" code="IT_63346" lat="40.315" lon="15.790" intensity="8.0" name="Tramutola"/>
  <station source="CFTI5med" netid="INTENSITY" code="IT_61228" lat="40.454" lon="15.553" intensity="7.5" name="Atena Lucana"/>
  <station source="CFTI5med" netid="INTENSITY" code="IT_62940" lat="40.475" lon="15.849" intensity="7.5" name="Calvello"/>
  <station source="CFTI5med" netid="INTENSITY" code="IT_63112" lat="40.421" lon="15.735" intensity="7.5" name="Marsico Nuovo"/>
  <station source="CFTI5med" netid="INTENSITY" code="IT_61833" lat="40.398" lon="15.596" intensity="7.5" name="Sala Consilina"/>
  <station source="CFTI5med" netid="INTENSITY" code="IT_62903" lat="40.650" lon="15.512" intensity="7.0" name="Balvano"/>
  <station source="CFTI5med" netid="INTENSITY" code="IT_62929" lat="40.478" lon="15.629" intensity="7.0" name="Brienza"/>
  <station source="CFTI5med" netid="INTENSITY" code="IT_63166" lat="40.297" lon="15.991" intensity="7.0" name="Montemurro"/>
  <station source="CFTI5med" netid="INTENSITY" code="IT_63326" lat="40.488" lon="15.677" intensity="7.0" name="Sasso di Castalda"/>
  <station source="CFTI5med" netid="INTENSITY" code="IT_61903" lat="40.469" lon="15.481" intensity="6.5" name="Sant'Arsenio"/>
  <station source="CFTI5med" netid="INTENSITY" code="IT_60627" lat="40.914" lon="14.793" intensity="3.9" name="Avellino"/>
  <station source="CFTI5med" netid="INTENSITY" code="IT_63034" lat="40.124" lon="15.764" intensity="3.9" name="Lagonegro"/>
  <station source="CFTI5med" netid="INTENSITY" code="IT_63426" lat="40.667" lon="16.611" intensity="3.9" name="Matera"/>
  <station source="CFTI5med" netid="INTENSITY" code="IT_63156" lat="40.994" lon="15.653" intensity="3.9" name="Melfi"/>
  <station source="CFTI5med" netid="INTENSITY" code="IT_60182" lat="40.849" lon="14.250" intensity="3.9" name="Napoli"/>
</stationlist>
