<?xml version="1.0" encoding="UTF-8"?>
<stationlist reference="DBMI15v4" created="20250808063617">
  <station source="UNITH003" netid="INTENSITY" code="AL_00023" lat="39.700" lon="20.180" intensity="9.0" name="DIVRI"/>
  <station source="UNITH003" netid="INTENSITY" code="AL_00009" lat="39.800" lon="20.220" intensity="7.0" name="Agios Andreas"/>
  <station source="UNITH003" netid="INTENSITY" code="AL_00012" lat="39.850" lon="20.170" intensity="7.0" name="Avaritsa"/>
  <station source="UNITH003" netid="INTENSITY" code="AL_00042" lat="39.780" lon="20.170" intensity="7.0" name="KOULOURITSA"/>
  <station source="UNITH003" netid="INTENSITY" code="AL_00065" lat="39.780" lon="20.230" intensity="7.0" name="TSERKOUVITSA"/>
  <station source="UNITH003" netid="INTENSITY" code="GR_00053" lat="37.044" lon="22.116" intensity="4.0" name="Kalamai"/>
  <station source="UNITH003" netid="INTENSITY" code="GR_00109" lat="38.244" lon="21.734" intensity="4.0" name="Patras"/>
  <station source="UNITH003" netid="INTENSITY" code="GR_00160" lat="37.780" lon="20.896" intensity="4.0" name="Zakynthos"/>
</stationlist>
