<?xml version="1.0" encoding="UTF-8"?>
<stationlist reference="DBMI15v4" created="20250808065341">
  <station source="KOUS001" netid="INTENSITY" code="GR_00074" lat="39.633" lon="22.417" intensity="6.5" name="Larisa"/>
  <station source="KOUS001" netid="INTENSITY" code="GR_00979" lat="39.750" lon="22.283" intensity="6.0" name="Tyrnavos"/>
  <station source="KOUS001" netid="INTENSITY" code="GR_00171" lat="39.717" lon="22.767" intensity="5.5" name="Aghia"/>
  <station source="KOUS001" netid="INTENSITY" code="GR_00538" lat="39.417" lon="22.167" intensity="4.5" name="Kazaklar/Ambelon"/>
  <station source="KOUS001" netid="INTENSITY" code="GR_00133" lat="39.167" lon="23.483" intensity="3.9" name="Skiathos"/>
  <station source="KOUS001" netid="INTENSITY" code="GR_00908" lat="39.122" lon="23.726" intensity="3.9" name="Skopelos"/>
  <station source="KOUS001" netid="INTENSITY" code="GR_00141" lat="40.636" lon="22.944" intensity="3.9" name="Thessaloniki"/>
  <station source="KOUS001" netid="INTENSITY" code="GR_01007" lat="39.367" lon="22.933" intensity="1.0" name="Volos"/>
</stationlist>
