<?xml version="1.0" encoding="UTF-8"?>
<stationlist reference="DBMI15v4" created="20250808065323">
  <station source="GUICO005" netid="INTENSITY" code="GR_00018" lat="35.017" lon="25.267" intensity="10.0" name="Belvedere Castle"/>
  <station source="GUICO005" netid="INTENSITY" code="GR_00051" lat="35.350" lon="25.117" intensity="10.0" name="Iraklio"/>
  <station source="GUICO005" netid="INTENSITY" code="GR_00085" lat="35.183" lon="25.067" intensity="10.0" name="Malvesin Castle"/>
  <station source="GUICO005" netid="INTENSITY" code="GR_00091" lat="35.183" lon="25.733" intensity="10.0" name="Mirabello Castle"/>
  <station source="GUICO005" netid="INTENSITY" code="GR_00097" lat="35.100" lon="26.067" intensity="10.0" name="Monforte Castle"/>
  <station source="GUICO005" netid="INTENSITY" code="GR_00132" lat="35.208" lon="26.105" intensity="10.0" name="Siteia (Pisokefali)"/>
  <station source="GUICO005" netid="INTENSITY" code="GR_00137" lat="35.183" lon="25.100" intensity="10.0" name="Temene Castle"/>
  <station source="GUICO005" netid="INTENSITY" code="EG_00009" lat="31.087" lon="30.947" intensity="9.5" name="Sakhā"/>
  <station source="GUICO005" netid="INTENSITY" code="EG_00006" lat="30.672" lon="31.195" intensity="9.0" name="Damanhūr al Waḩsh"/>
  <station source="GUICO005" netid="INTENSITY" code="GR_00089" lat="35.417" lon="24.683" intensity="9.0" name="Millopotamo Castle"/>
  <station source="GUICO005" netid="INTENSITY" code="GR_00125" lat="36.430" lon="28.230" intensity="9.0" name="Ródos"/>
  <station source="GUICO005" netid="INTENSITY" code="EG_00001" lat="30.833" lon="30.867" intensity="8.5" name="Abyar"/>
  <station source="GUICO005" netid="INTENSITY" code="EG_00004" lat="28.100" lon="30.750" intensity="8.5" name="Al-Minya"/>
  <station source="GUICO005" netid="INTENSITY" code="GR_00019" lat="35.450" lon="24.200" intensity="8.5" name="Bicorna Castle"/>
  <station source="GUICO005" netid="INTENSITY" code="EG_00008" lat="25.916" lon="32.750" intensity="8.5" name="Qūs"/>
  <station source="GUICO005" netid="INTENSITY" code="GR_00124" lat="35.367" lon="24.483" intensity="8.0" name="Rethymnon"/>
  <station source="GUICO005" netid="INTENSITY" code="IL_00003" lat="32.967" lon="35.495" intensity="8.0" name="Safed"/>
  <station source="GUICO005" netid="INTENSITY" code="EG_00003" lat="31.198" lon="29.919" intensity="7.5" name="Alexandria"/>
  <station source="GUICO005" netid="INTENSITY" code="SY_00002" lat="35.133" lon="36.750" intensity="7.5" name="Hamah"/>
  <station source="GUICO005" netid="INTENSITY" code="CY_00003" lat="35.167" lon="33.372" intensity="7.5" name="Nicosia"/>
  <station source="GUICO005" netid="INTENSITY" code="JO_00001" lat="31.183" lon="35.700" intensity="7.0" name="Al-Karak"/>
  <station source="GUICO005" netid="INTENSITY" code="JO_00002" lat="30.533" lon="35.567" intensity="7.0" name="Ash Shawbak"/>
  <station source="GUICO005" netid="INTENSITY" code="EG_00005" lat="30.050" lon="31.250" intensity="7.0" name="Cairo"/>
  <station source="GUICO005" netid="INTENSITY" code="GR_00026" lat="35.483" lon="23.650" intensity="7.0" name="Chissamo Castle"/>
  <station source="GUICO005" netid="INTENSITY" code="SY_00001" lat="33.500" lon="36.300" intensity="7.0" name="Damascus"/>
  <station source="GUICO005" netid="INTENSITY" code="GR_00065" lat="36.796" lon="21.957" intensity="7.0" name="Koroni"/>
  <station source="GUICO005" netid="INTENSITY" code="GR_00088" lat="36.820" lon="21.706" intensity="7.0" name="Methoni"/>
  <station source="GUICO005" netid="INTENSITY" code="TR_00009" lat="36.900" lon="30.700" intensity="6.5" name="Antalya"/>
  <station source="GUICO005" netid="INTENSITY" code="TR_00011" lat="36.233" lon="36.117" intensity="6.5" name="Antioch"/>
  <station source="GUICO005" netid="INTENSITY" code="TR_00124" lat="37.450" lon="35.817" intensity="6.5" name="Sis"/>
  <station source="GUICO005" netid="INTENSITY" code="ES_00093" lat="36.523" lon="-6.284" intensity="3.9" name="Cádiz"/>
  <station source="GUICO005" netid="INTENSITY" code="MA_00001" lat="31.630" lon="-8.000" intensity="3.9" name="Marrakech"/>
  <station source="GUICO005" netid="INTENSITY" code="TN_00002" lat="36.833" lon="10.217" intensity="3.9" name="Tunis"/>
  <station source="GUICO005" netid="INTENSITY" code="TR_00078" lat="41.012" lon="28.976" intensity="3.0" name="Istanbul"/>
</stationlist>
