<?xml version="1.0" encoding="UTF-8"?>
<stationlist reference="DBMI15v4" created="20250808064905">
  <station source="CAMAL011b" netid="INTENSITY" code="IT_53099" lat="42.598" lon="13.231" intensity="9.0" name="Scai"/>
  <station source="CAMAL011b" netid="INTENSITY" code="IT_53101" lat="42.619" lon="13.221" intensity="9.0" name="Torrita"/>
  <station source="CAMAL011b" netid="INTENSITY" code="IT_53053" lat="42.628" lon="13.290" intensity="8.0" name="Amatrice"/>
  <station source="CAMAL011b" netid="INTENSITY" code="IT_53035" lat="42.695" lon="13.248" intensity="6.5" name="Accumoli"/>
  <station source="CAMAL011b" netid="INTENSITY" code="IT_53037" lat="42.691" lon="13.228" intensity="6.4" name="Villanova"/>
  <station source="CAMAL011b" netid="INTENSITY" code="IT_56142" lat="42.351" lon="13.399" intensity="5.5" name="L'Aquila"/>
  <station source="CAMAL011b" netid="INTENSITY" code="IT_52297" lat="42.772" lon="13.296" intensity="5.0" name="Arquata del Tronto"/>
  <station source="CAMAL011b" netid="INTENSITY" code="IT_52305" lat="42.855" lon="13.576" intensity="5.0" name="Ascoli Piceno"/>
  <station source="CAMAL011b" netid="INTENSITY" code="IT_49693" lat="42.736" lon="12.737" intensity="5.0" name="Spoleto"/>
</stationlist>
