<?xml version="1.0" encoding="UTF-8"?>
<stationlist reference="DBMI15v4" created="20250808065336">
  <station source="UNITH003" netid="INTENSITY" code="GR_02024" lat="37.051" lon="22.008" intensity="10.0" name="Messini"/>
  <station source="UNITH003" netid="INTENSITY" code="GR_02033" lat="37.083" lon="22.033" intensity="10.0" name="Mikromani"/>
  <station source="UNITH003" netid="INTENSITY" code="GR_00301" lat="37.050" lon="22.067" intensity="9.0" name="Asprochoma"/>
  <station source="UNITH003" netid="INTENSITY" code="GR_00289" lat="37.080" lon="22.000" intensity="8.0" name="Aris"/>
  <station source="UNITH003" netid="INTENSITY" code="GR_00467" lat="37.070" lon="22.070" intensity="8.0" name="Kalamion"/>
  <station source="UNITH003" netid="INTENSITY" code="GR_00174" lat="37.450" lon="21.920" intensity="7.0" name="Agia Paraskevi"/>
  <station source="UNITH003" netid="INTENSITY" code="GR_00053" lat="37.044" lon="22.116" intensity="7.0" name="Kalamai"/>
</stationlist>
