<?xml version="1.0" encoding="UTF-8"?>
<stationlist reference="DBMI15v4" created="20250808065342">
  <station source="UNITH003" netid="INTENSITY" code="GR_00948" lat="40.500" lon="25.600" intensity="9.0" name="Therma"/>
  <station source="UNITH003" netid="INTENSITY" code="GR_00199" lat="40.457" lon="25.468" intensity="8.0" name="Agkistron"/>
  <station source="UNITH003" netid="INTENSITY" code="GR_00564" lat="40.850" lon="25.680" intensity="8.0" name="Kipoi"/>
  <station source="UNITH003" netid="INTENSITY" code="GR_00883" lat="40.450" lon="25.600" intensity="8.0" name="Samothraki"/>
  <station source="UNITH003" netid="INTENSITY" code="GR_01277" lat="40.845" lon="25.873" intensity="7.0" name="Alexandroupolis"/>
  <station source="UNITH003" netid="INTENSITY" code="GR_00017" lat="40.200" lon="24.300" intensity="6.0" name="Central Athos"/>
  <station source="UNITH003" netid="INTENSITY" code="TR_00222" lat="40.180" lon="25.920" intensity="6.0" name="Gökçeada"/>
  <station source="UNITH003" netid="INTENSITY" code="TR_00053" lat="41.667" lon="26.567" intensity="5.0" name="Edirne [Adrianoupolis]"/>
  <station source="UNITH003" netid="INTENSITY" code="GR_01756" lat="41.320" lon="23.870" intensity="4.0" name="Kato Nevrokopion"/>
  <station source="UNITH003" netid="INTENSITY" code="GR_01007" lat="39.367" lon="22.933" intensity="4.0" name="Volos"/>
  <station source="UNITH003" netid="INTENSITY" code="GR_00024" lat="38.367" lon="26.133" intensity="3.0" name="Chios"/>
  <station source="UNITH003" netid="INTENSITY" code="GR_00126" lat="37.757" lon="26.976" intensity="3.0" name="Samos"/>
</stationlist>
