<?xml version="1.0" encoding="UTF-8"?>
<stationlist reference="DBMI15v4" created="20250821142403">
  <station source="TAXE003" netid="INTENSITY" code="TR_00079" lat="38.416" lon="27.137" intensity="7.0" name="Izmir"/>
  <station source="TAXE003" netid="INTENSITY" code="TR_00006" lat="38.350" lon="28.533" intensity="6.0" name="Alasehir"/>
  <station source="TAXE003" netid="INTENSITY" code="TR_00185" lat="38.323" lon="26.306" intensity="6.0" name="Cesme"/>
  <station source="TAXE003" netid="INTENSITY" code="TR_00099" lat="38.614" lon="27.433" intensity="6.0" name="Manisa"/>
  <station source="TAXE003" netid="INTENSITY" code="TR_00318" lat="39.167" lon="27.600" intensity="6.0" name="Soma"/>
  <station source="TAXE003" netid="INTENSITY" code="GR_00024" lat="38.367" lon="26.133" intensity="5.0" name="Chios"/>
  <station source="TAXE003" netid="INTENSITY" code="TR_00281" lat="38.600" lon="27.067" intensity="5.0" name="Menemen"/>
  <station source="TAXE003" netid="INTENSITY" code="GR_00100" lat="39.106" lon="26.557" intensity="5.0" name="Mytilini"/>
  <station source="TAXE003" netid="INTENSITY" code="GR_00126" lat="37.757" lon="26.976" intensity="5.0" name="Samos"/>
</stationlist>
