<?xml version="1.0" encoding="UTF-8"?>
<stationlist reference="DBMI15v4" created="20250807210909">
  <station source="SISFR016" netid="INTENSITY" code="FR_01396" lat="47.017" lon="0.083" intensity="7.5" name="LOUDUN"/>
  <station source="SISFR016" netid="INTENSITY" code="FR_01548" lat="46.883" lon="-0.017" intensity="7.5" name="MONCONTOUR"/>
  <station source="SISFR016" netid="INTENSITY" code="FR_01944" lat="47.000" lon="-0.033" intensity="7.0" name="RANTON"/>
  <station source="SISFR016" netid="INTENSITY" code="FR_02269" lat="46.883" lon="-0.050" intensity="7.0" name="SAINT-JOUIN-DE-MARNES"/>
  <station source="SISFR016" netid="INTENSITY" code="FR_00093" lat="47.083" lon="-0.117" intensity="6.0" name="ANTOIGNE"/>
  <station source="SISFR016" netid="INTENSITY" code="FR_00419" lat="47.217" lon="0.067" intensity="6.0" name="CANDES-SAINT-MARTIN"/>
  <station source="SISFR016" netid="INTENSITY" code="FR_01612" lat="47.750" lon="0.867" intensity="6.0" name="MONTOIRE-SUR-LE-LOIR"/>
  <station source="SISFR016" netid="INTENSITY" code="FR_02609" lat="46.983" lon="-0.217" intensity="6.0" name="THOUARS"/>
  <station source="SISFR016" netid="INTENSITY" code="FR_02707" lat="47.233" lon="0.050" intensity="6.0" name="VARENNES-SUR-LOIRE"/>
  <station source="SISFR016" netid="INTENSITY" code="FR_02748" lat="46.867" lon="0.167" intensity="6.0" name="VERRUE"/>
  <station source="SISFR016" netid="INTENSITY" code="FR_00073" lat="47.467" lon="-0.550" intensity="5.5" name="ANGERS"/>
  <station source="SISFR016" netid="INTENSITY" code="FR_01782" lat="46.650" lon="-0.250" intensity="5.5" name="PARTHENAY"/>
  <station source="SISFR016" netid="INTENSITY" code="FR_00227" lat="47.483" lon="-0.633" intensity="5.0" name="BEAUCOUZE"/>
  <station source="SISFR016" netid="INTENSITY" code="FR_00361" lat="47.300" lon="0.067" intensity="5.0" name="BRAIN-SUR-ALLONNES"/>
  <station source="SISFR016" netid="INTENSITY" code="FR_00481" lat="47.633" lon="-1.050" intensity="5.0" name="CHALLAIN-LA-POTHERIE"/>
  <station source="SISFR016" netid="INTENSITY" code="FR_00699" lat="48.133" lon="0.283" intensity="5.0" name="COURCEBOEUFS"/>
  <station source="SISFR016" netid="INTENSITY" code="FR_01071" lat="47.317" lon="0.433" intensity="5.0" name="LA CHAPELLE-AUX-NAUX"/>
  <station source="SISFR016" netid="INTENSITY" code="FR_01072" lat="47.733" lon="-0.233" intensity="5.0" name="LA CHAPELLE-D'ALIGNE"/>
  <station source="SISFR016" netid="INTENSITY" code="FR_01136" lat="48.067" lon="0.033" intensity="5.0" name="LA QUINTE"/>
  <station source="SISFR016" netid="INTENSITY" code="FR_01268" lat="48.000" lon="0.200" intensity="5.0" name="LE MANS"/>
  <station source="SISFR016" netid="INTENSITY" code="FR_01347" lat="47.150" lon="-0.300" intensity="5.0" name="LES VERCHERS-SUR-LAYON"/>
  <station source="SISFR016" netid="INTENSITY" code="FR_01484" lat="46.933" lon="-0.750" intensity="5.0" name="MAULEON"/>
  <station source="SISFR016" netid="INTENSITY" code="FR_01701" lat="48.083" lon="-0.033" intensity="5.0" name="NEUVY-EN-CHAMPAGNE"/>
  <station source="SISFR016" netid="INTENSITY" code="FR_01712" lat="46.317" lon="-0.467" intensity="5.0" name="NIORT"/>
  <station source="SISFR016" netid="INTENSITY" code="FR_09050" lat="48.317" lon="0.817" intensity="5.0" name="NOGENT-LE-ROTROU"/>
  <station source="SISFR016" netid="INTENSITY" code="FR_01727" lat="48.150" lon="0.117" intensity="5.0" name="NOTRE-DAME-DES-CHAMPS (SAINT-JEAN-D'ASSE)"/>
  <station source="SISFR016" netid="INTENSITY" code="FR_02213" lat="47.200" lon="-0.367" intensity="5.0" name="SAINT-GEORGES-SUR-LAYON"/>
  <station source="SISFR016" netid="INTENSITY" code="FR_02270" lat="48.050" lon="0.000" intensity="5.0" name="SAINT-JULIEN (NEUVY-EN-CHAMPAGNE)"/>
  <station source="SISFR016" netid="INTENSITY" code="FR_02534" lat="47.433" lon="-0.483" intensity="5.0" name="SORGES (LES PONTS-DE-CE)"/>
  <station source="SISFR016" netid="INTENSITY" code="FR_02843" lat="47.933" lon="0.067" intensity="5.0" name="VOIVRES-LES-LE-MANS"/>
  <station source="SISFR016" netid="INTENSITY" code="FR_00042" lat="48.433" lon="0.083" intensity="4.5" name="ALENCON"/>
  <station source="SISFR016" netid="INTENSITY" code="FR_00107" lat="48.400" lon="0.083" intensity="4.5" name="ARCONNAY"/>
  <station source="SISFR016" netid="INTENSITY" code="FR_00142" lat="48.200" lon="0.083" intensity="4.5" name="ASSE-LE-RIBOUL"/>
  <station source="SISFR016" netid="INTENSITY" code="FR_00113" lat="48.750" lon="-0.017" intensity="4.0" name="ARGENTAN"/>
  <station source="SISFR016" netid="INTENSITY" code="FR_00521" lat="48.450" lon="1.500" intensity="4.0" name="CHARTRES"/>
  <station source="SISFR016" netid="INTENSITY" code="FR_01218" lat="48.067" lon="-0.767" intensity="4.0" name="LAVAL"/>
  <station source="SISFR016" netid="INTENSITY" code="FR_01371" lat="45.833" lon="1.267" intensity="4.0" name="LIMOGES"/>
  <station source="SISFR016" netid="INTENSITY" code="FR_01377" lat="49.150" lon="0.233" intensity="4.0" name="LISIEUX"/>
  <station source="SISFR016" netid="INTENSITY" code="FR_01683" lat="47.217" lon="-1.550" intensity="4.0" name="NANTES"/>
  <station source="SISFR016" netid="INTENSITY" code="FR_02187" lat="47.283" lon="-1.783" intensity="4.0" name="SAINT-ETIENNE-DE-MONTLUC"/>
  <station source="SISFR016" netid="INTENSITY" code="FR_00404" lat="49.183" lon="-0.367" intensity="3.9" name="CAEN"/>
  <station source="SISFR016" netid="INTENSITY" code="FR_00463" lat="46.833" lon="0.300" intensity="3.9" name="CERNAY"/>
  <station source="SISFR016" netid="INTENSITY" code="FR_00535" lat="47.833" lon="-0.700" intensity="3.9" name="CHATEAU-GONTIER"/>
  <station source="SISFR016" netid="INTENSITY" code="FR_01128" lat="47.467" lon="0.117" intensity="3.9" name="LA PELLERINE"/>
  <station source="SISFR016" netid="INTENSITY" code="FR_01141" lat="47.517" lon="-2.300" intensity="3.9" name="LA ROCHE-BERNARD"/>
  <station source="SISFR016" netid="INTENSITY" code="FR_01144" lat="46.167" lon="-1.150" intensity="3.9" name="LA ROCHELLE"/>
  <station source="SISFR016" netid="INTENSITY" code="FR_01853" lat="46.583" lon="0.350" intensity="3.9" name="POITIERS"/>
  <station source="SISFR016" netid="INTENSITY" code="FR_01992" lat="48.283" lon="0.217" intensity="3.9" name="RENE"/>
  <station source="SISFR016" netid="INTENSITY" code="FR_02028" lat="45.950" lon="-0.967" intensity="3.9" name="ROCHEFORT"/>
  <station source="SISFR016" netid="INTENSITY" code="FR_02059" lat="49.433" lon="1.083" intensity="3.9" name="ROUEN"/>
  <station source="SISFR016" netid="INTENSITY" code="FR_02084" lat="47.267" lon="1.367" intensity="3.9" name="SAINT-AIGNAN"/>
  <station source="SISFR016" netid="INTENSITY" code="FR_02119" lat="48.400" lon="-0.950" intensity="3.9" name="SAINT-BERTHEVIN-LA-TANNIERE"/>
  <station source="SISFR016" netid="INTENSITY" code="FR_02301" lat="46.417" lon="-0.200" intensity="3.9" name="SAINT-MAIXENT-L'ECOLE"/>
  <station source="SISFR016" netid="INTENSITY" code="FR_02458" lat="47.250" lon="-0.083" intensity="3.9" name="SAUMUR"/>
  <station source="SISFR016" netid="INTENSITY" code="FR_02636" lat="47.400" lon="0.683" intensity="3.9" name="TOURS"/>
  <station source="SISFR016" netid="INTENSITY" code="FR_02727" lat="47.800" lon="1.067" intensity="3.9" name="VENDOME"/>
  <station source="SISFR016" netid="INTENSITY" code="FR_02848" lat="46.383" lon="-0.967" intensity="3.9" name="VOUILLE-LES-MARAIS"/>
  <station source="SISFR016" netid="INTENSITY" code="FR_02862" lat="47.817" lon="0.150" intensity="3.9" name="YVRE-LE-POLIN"/>
  <station source="SISFR016" netid="INTENSITY" code="FR_09645" lat="47.700" lon="-3.350" intensity="3.5" name="PORT-LOUIS"/>
  <station source="SISFR016" netid="INTENSITY" code="FR_02181" lat="48.100" lon="-0.350" intensity="3.5" name="SAINTE-SUZANNE"/>
  <station source="SISFR016" netid="INTENSITY" code="FR_01263" lat="49.500" lon="0.133" intensity="3.0" name="LE HAVRE"/>
  <station source="SISFR016" netid="INTENSITY" code="FR_01780" lat="48.867" lon="2.333" intensity="3.0" name="PARIS"/>
  <station source="SISFR016" netid="INTENSITY" code="FR_02750" lat="48.800" lon="2.133" intensity="3.0" name="VERSAILLES"/>
</stationlist>
