<?xml version="1.0" encoding="UTF-8"?>
<stationlist reference="DBMI15v4" created="20250821143439">
  <station source="OLIAL006" netid="INTENSITY" code="ES_00103" lat="42.315" lon="2.367" intensity="9.0" name="Camprodon"/>
  <station source="OLIAL006" netid="INTENSITY" code="ES_00088" lat="42.278" lon="2.187" intensity="8.5" name="Bruguera"/>
  <station source="OLIAL006" netid="INTENSITY" code="ES_00100" lat="42.298" lon="2.141" intensity="8.5" name="Campelles"/>
  <station source="OLIAL006" netid="INTENSITY" code="ES_00108" lat="42.234" lon="2.479" intensity="8.5" name="Capsec"/>
  <station source="OLIAL006" netid="INTENSITY" code="ES_00179" lat="42.343" lon="2.175" intensity="8.5" name="Fustanyà"/>
  <station source="OLIAL006" netid="INTENSITY" code="ES_00273" lat="42.399" lon="2.156" intensity="8.5" name="Núria"/>
  <station source="OLIAL006" netid="INTENSITY" code="ES_00293" lat="42.314" lon="2.217" intensity="8.5" name="Pardines"/>
  <station source="OLIAL006" netid="INTENSITY" code="ES_00302" lat="42.318" lon="2.107" intensity="8.5" name="Planoles"/>
  <station source="OLIAL006" netid="INTENSITY" code="ES_00306" lat="42.273" lon="2.434" intensity="8.5" name="Porreres"/>
  <station source="OLIAL006" netid="INTENSITY" code="ES_00315" lat="42.350" lon="2.163" intensity="8.5" name="Queralbs"/>
  <station source="OLIAL006" netid="INTENSITY" code="ES_00320" lat="42.280" lon="2.372" intensity="8.5" name="Ral, la"/>
  <station source="OLIAL006" netid="INTENSITY" code="ES_00322" lat="42.335" lon="2.173" intensity="8.5" name="Rialb"/>
  <station source="OLIAL006" netid="INTENSITY" code="ES_00328" lat="42.309" lon="2.172" intensity="8.5" name="Ribes de Freser"/>
  <station source="OLIAL006" netid="INTENSITY" code="ES_00397" lat="42.262" lon="2.413" intensity="8.5" name="Sant Feliu del Bac"/>
  <station source="OLIAL006" netid="INTENSITY" code="ES_00403" lat="42.235" lon="2.288" intensity="8.5" name="Sant Joan de les Abadesses"/>
  <station source="OLIAL006" netid="INTENSITY" code="ES_00423" lat="42.224" lon="2.429" intensity="8.5" name="Sant Martí de Solamal"/>
  <station source="OLIAL006" netid="INTENSITY" code="ES_00428" lat="42.241" lon="2.436" intensity="8.5" name="Sant Martí del Clot (o de Bianya)"/>
  <station source="OLIAL006" netid="INTENSITY" code="ES_00448" lat="42.215" lon="2.425" intensity="8.5" name="Sant Pere Espuig"/>
  <station source="OLIAL006" netid="INTENSITY" code="ES_00452" lat="42.238" lon="2.358" intensity="8.5" name="Sant Ponç d'Aulina"/>
  <station source="OLIAL006" netid="INTENSITY" code="ES_00467" lat="42.248" lon="2.402" intensity="8.5" name="Sant Salvador de Bianya"/>
  <station source="OLIAL006" netid="INTENSITY" code="ES_00488" lat="42.239" lon="2.501" intensity="8.5" name="Santa Maria de Castellar (Castellar de la Muntanya)"/>
  <station source="OLIAL006" netid="INTENSITY" code="ES_00527" lat="42.209" lon="2.476" intensity="8.5" name="Socarrats"/>
  <station source="OLIAL006" netid="INTENSITY" code="ES_00575" lat="42.266" lon="2.454" intensity="8.5" name="Vellanacorba (Sant Miquel de la Torre)"/>
  <station source="OLIAL006" netid="INTENSITY" code="ES_00578" lat="42.320" lon="2.134" intensity="8.5" name="Ventolà"/>
  <station source="OLIAL006" netid="INTENSITY" code="ES_00063" lat="42.243" lon="2.619" intensity="8.0" name="Bellpuig"/>
  <station source="OLIAL006" netid="INTENSITY" code="ES_00121" lat="42.221" lon="2.551" intensity="8.0" name="Castellfollit de la Roca"/>
  <station source="OLIAL006" netid="INTENSITY" code="ES_00310" lat="42.434" lon="1.928" intensity="8.0" name="Puigcerdà"/>
  <station source="OLIAL006" netid="INTENSITY" code="ES_00055" lat="42.119" lon="2.767" intensity="7.5" name="Banyoles"/>
  <station source="OLIAL006" netid="INTENSITY" code="ES_00080" lat="42.200" lon="2.699" intensity="7.5" name="Besalú"/>
  <station source="OLIAL006" netid="INTENSITY" code="ES_00253" lat="42.232" lon="2.594" intensity="7.5" name="Montagut"/>
  <station source="OLIAL006" netid="INTENSITY" code="FR_01897" lat="42.405" lon="2.480" intensity="7.5" name="Prats de Molló"/>
  <station source="OLIAL006" netid="INTENSITY" code="ES_00331" lat="42.203" lon="2.191" intensity="7.5" name="Ripoll"/>
  <station source="OLIAL006" netid="INTENSITY" code="ES_00416" lat="42.237" lon="1.877" intensity="7.5" name="Sant Llorenç prop Bagà"/>
  <station source="OLIAL006" netid="INTENSITY" code="FR_02443" lat="42.528" lon="2.402" intensity="7.5" name="Sant Martí de Canigó"/>
  <station source="OLIAL006" netid="INTENSITY" code="ES_00486" lat="42.206" lon="2.446" intensity="7.5" name="Santa Margarida de Bianya"/>
  <station source="OLIAL006" netid="INTENSITY" code="ES_00571" lat="42.197" lon="2.305" intensity="7.5" name="Vallfogona de Ripollès"/>
  <station source="OLIAL006" netid="INTENSITY" code="FR_00125" lat="42.458" lon="2.634" intensity="7.0" name="Arles-sur-Tech"/>
  <station source="OLIAL006" netid="INTENSITY" code="ES_00099" lat="42.100" lon="2.767" intensity="7.0" name="Camós"/>
  <station source="OLIAL006" netid="INTENSITY" code="ES_00175" lat="41.650" lon="1.406" intensity="7.0" name="Freixenet"/>
  <station source="OLIAL006" netid="INTENSITY" code="ES_00187" lat="41.984" lon="2.821" intensity="7.0" name="Girona"/>
  <station source="OLIAL006" netid="INTENSITY" code="ES_00264" lat="41.880" lon="2.171" intensity="7.0" name="Muntanyola"/>
  <station source="OLIAL006" netid="INTENSITY" code="ES_00307" lat="42.043" lon="2.457" intensity="7.0" name="Pruit"/>
  <station source="OLIAL006" netid="INTENSITY" code="ES_00367" lat="42.125" lon="2.362" intensity="7.0" name="Sant Bartomeu de Covildases"/>
  <station source="OLIAL006" netid="INTENSITY" code="ES_00377" lat="41.933" lon="2.051" intensity="7.0" name="Sant Cristòfol d'Oristà"/>
  <station source="OLIAL006" netid="INTENSITY" code="ES_00408" lat="42.074" lon="2.399" intensity="7.0" name="Sant Julià de Cabrera"/>
  <station source="OLIAL006" netid="INTENSITY" code="ES_00445" lat="42.159" lon="2.289" intensity="7.0" name="Sant Pere de Milany"/>
  <station source="OLIAL006" netid="INTENSITY" code="ES_00464" lat="41.965" lon="2.411" intensity="7.0" name="Sant Romà de Sau"/>
  <station source="OLIAL006" netid="INTENSITY" code="ES_00057" lat="41.384" lon="2.178" intensity="6.5" name="Barcelona"/>
  <station source="OLIAL006" netid="INTENSITY" code="ES_00139" lat="41.671" lon="1.273" intensity="6.5" name="Cervera"/>
  <station source="OLIAL006" netid="INTENSITY" code="ES_00413" lat="41.924" lon="2.360" intensity="6.5" name="Sant Llorenç del Munt"/>
  <station source="OLIAL006" netid="INTENSITY" code="ES_00489" lat="41.822" lon="1.943" intensity="6.5" name="Santa Maria de Fucimanya"/>
  <station source="OLIAL006" netid="INTENSITY" code="ES_00548" lat="41.850" lon="2.229" intensity="6.5" name="Tona"/>
  <station source="OLIAL006" netid="INTENSITY" code="ES_00038" lat="42.010" lon="2.604" intensity="6.4" name="Amer"/>
  <station source="OLIAL006" netid="INTENSITY" code="ES_00137" lat="41.970" lon="2.622" intensity="6.4" name="Cellera de Ter, la"/>
  <station source="OLIAL006" netid="INTENSITY" code="ES_00169" lat="42.086" lon="2.438" intensity="6.4" name="Falgars d'en Bas"/>
  <station source="OLIAL006" netid="INTENSITY" code="ES_00173" lat="41.931" lon="2.813" intensity="6.4" name="Fornells de la Selva"/>
  <station source="OLIAL006" netid="INTENSITY" code="ES_00207" lat="42.123" lon="2.422" intensity="6.4" name="Joanetes"/>
  <station source="OLIAL006" netid="INTENSITY" code="ES_00234" lat="42.150" lon="2.439" intensity="6.4" name="Mallol, el"/>
  <station source="OLIAL006" netid="INTENSITY" code="ES_00278" lat="42.183" lon="2.489" intensity="6.4" name="Olot"/>
  <station source="OLIAL006" netid="INTENSITY" code="ES_00296" lat="42.176" lon="2.445" intensity="6.4" name="Pinya, la"/>
  <station source="OLIAL006" netid="INTENSITY" code="ES_00300" lat="42.057" lon="2.537" intensity="6.4" name="Planes d'Hostoles, les"/>
  <station source="OLIAL006" netid="INTENSITY" code="ES_00312" lat="42.142" lon="2.429" intensity="6.4" name="Puigpardines"/>
  <station source="OLIAL006" netid="INTENSITY" code="ES_00333" lat="42.190" lon="2.409" intensity="6.4" name="Riudaura"/>
  <station source="OLIAL006" netid="INTENSITY" code="FR_02440" lat="42.834" lon="2.920" intensity="6.4" name="Salses"/>
  <station source="OLIAL006" netid="INTENSITY" code="ES_00353" lat="42.292" lon="2.518" intensity="6.4" name="Sant Andres de Bestracà"/>
  <station source="OLIAL006" netid="INTENSITY" code="ES_00363" lat="41.943" lon="2.742" intensity="6.4" name="Sant Andreu d'Estanyol"/>
  <station source="OLIAL006" netid="INTENSITY" code="ES_00355" lat="41.890" lon="2.626" intensity="6.4" name="Sant Andreu de Castanyet"/>
  <station source="OLIAL006" netid="INTENSITY" code="ES_00357" lat="42.037" lon="2.629" intensity="6.4" name="Sant Andreu de la Barroca"/>
  <station source="OLIAL006" netid="INTENSITY" code="ES_00365" lat="42.091" lon="2.587" intensity="6.4" name="Sant Aniol de Finestres"/>
  <station source="OLIAL006" netid="INTENSITY" code="ES_00370" lat="42.087" lon="2.544" intensity="6.4" name="Sant Cristòfol de Cogolls"/>
  <station source="OLIAL006" netid="INTENSITY" code="ES_00371" lat="42.170" lon="2.500" intensity="6.4" name="Sant Cristòfol de les Fonts"/>
  <station source="OLIAL006" netid="INTENSITY" code="ES_00375" lat="42.362" lon="2.681" intensity="6.4" name="Sant Cristòfol dels Horts"/>
  <station source="OLIAL006" netid="INTENSITY" code="ES_00385" lat="42.119" lon="2.458" intensity="6.4" name="Sant Esteve d'en Bas"/>
  <station source="OLIAL006" netid="INTENSITY" code="ES_00380" lat="42.064" lon="2.616" intensity="6.4" name="Sant Esteve de Llémena"/>
  <station source="OLIAL006" netid="INTENSITY" code="ES_00381" lat="42.090" lon="2.828" intensity="6.4" name="Sant Esteve de Sords"/>
  <station source="OLIAL006" netid="INTENSITY" code="ES_00384" lat="42.152" lon="2.812" intensity="6.4" name="Sant Esteve de Viladamí"/>
  <station source="OLIAL006" netid="INTENSITY" code="ES_00387" lat="42.153" lon="2.925" intensity="6.4" name="Sant Feliu de Calabuig"/>
  <station source="OLIAL006" netid="INTENSITY" code="ES_00392" lat="42.078" lon="2.510" intensity="6.4" name="Sant Feliu de Pallerols"/>
  <station source="OLIAL006" netid="INTENSITY" code="ES_00394" lat="41.993" lon="2.800" intensity="6.4" name="Sant Feliu de Paret-Rufí (Domeny)"/>
  <station source="OLIAL006" netid="INTENSITY" code="ES_00395" lat="42.157" lon="2.667" intensity="6.4" name="Sant Feliu de Ventatjol"/>
  <station source="OLIAL006" netid="INTENSITY" code="ES_00400" lat="42.125" lon="2.907" intensity="6.4" name="Sant Genís d'Orriols"/>
  <station source="OLIAL006" netid="INTENSITY" code="ES_00405" lat="42.174" lon="2.429" intensity="6.4" name="Sant Joan dels Balbs"/>
  <station source="OLIAL006" netid="INTENSITY" code="ES_00412" lat="42.255" lon="2.716" intensity="6.4" name="Sant Llorenç del Mont (o de Sous)"/>
  <station source="OLIAL006" netid="INTENSITY" code="ES_00417" lat="42.190" lon="2.846" intensity="6.4" name="Sant Llorens d'Espinavessa"/>
  <station source="OLIAL006" netid="INTENSITY" code="ES_00419" lat="42.126" lon="2.869" intensity="6.4" name="Sant Marçal de Quarantella"/>
  <station source="OLIAL006" netid="INTENSITY" code="ES_00421" lat="42.037" lon="2.648" intensity="6.4" name="Sant Martí de Llémena"/>
  <station source="OLIAL006" netid="INTENSITY" code="ES_00422" lat="41.823" lon="2.718" intensity="6.4" name="Sant Martí de Riudarenes"/>
  <station source="OLIAL006" netid="INTENSITY" code="ES_00426" lat="42.390" lon="3.086" intensity="6.4" name="Sant Martí de Vallmala"/>
  <station source="OLIAL006" netid="INTENSITY" code="ES_00427" lat="42.332" lon="2.313" intensity="6.4" name="Sant Martí de Vilallonga de Ter"/>
  <station source="OLIAL006" netid="INTENSITY" code="ES_00437" lat="42.289" lon="2.722" intensity="6.4" name="Sant Miquel de la Cirera"/>
  <station source="OLIAL006" netid="INTENSITY" code="ES_00441" lat="42.103" lon="2.494" intensity="6.4" name="Sant Miquel de Pineda"/>
  <station source="OLIAL006" netid="INTENSITY" code="ES_00443" lat="42.145" lon="2.461" intensity="6.4" name="Sant Pere de les Preses"/>
  <station source="OLIAL006" netid="INTENSITY" code="ES_00447" lat="42.227" lon="2.604" intensity="6.4" name="Sant Pere de Montagut"/>
  <station source="OLIAL006" netid="INTENSITY" code="ES_00450" lat="42.053" lon="2.518" intensity="6.4" name="Sant Pere Sacosta"/>
  <station source="OLIAL006" netid="INTENSITY" code="ES_00454" lat="42.153" lon="2.413" intensity="6.4" name="Sant Privat d'en Bas"/>
  <station source="OLIAL006" netid="INTENSITY" code="ES_00458" lat="42.117" lon="2.443" intensity="6.4" name="Sant Quintí d'en Bas"/>
  <station source="OLIAL006" netid="INTENSITY" code="ES_00459" lat="41.817" lon="2.515" intensity="6.4" name="Sant Quirze i Santa Julita d'Arbúcies"/>
  <station source="OLIAL006" netid="INTENSITY" code="ES_00462" lat="42.220" lon="2.811" intensity="6.4" name="Sant Romà de Casamor"/>
  <station source="OLIAL006" netid="INTENSITY" code="ES_00466" lat="42.086" lon="2.883" intensity="6.4" name="Sant Sadurní de Vilafreser"/>
  <station source="OLIAL006" netid="INTENSITY" code="ES_00471" lat="42.110" lon="2.663" intensity="6.4" name="Sant Vicenç de Falgons"/>
  <station source="OLIAL006" netid="INTENSITY" code="ES_00473" lat="42.155" lon="2.615" intensity="6.4" name="Sant Vicenç de Sallent"/>
  <station source="OLIAL006" netid="INTENSITY" code="ES_00478" lat="42.003" lon="2.676" intensity="6.4" name="Santa Cecília de Càrcer o Sacàrcera (les Serres)"/>
  <station source="OLIAL006" netid="INTENSITY" code="ES_00480" lat="42.198" lon="2.548" intensity="6.4" name="Santa Eulàlia de Begudà"/>
  <station source="OLIAL006" netid="INTENSITY" code="ES_00481" lat="42.069" lon="2.074" intensity="6.4" name="Santa Eulàlia de Puig-Oriol"/>
  <station source="OLIAL006" netid="INTENSITY" code="ES_00484" lat="42.084" lon="2.840" intensity="6.4" name="Santa Llogaia del TerriI"/>
  <station source="OLIAL006" netid="INTENSITY" code="ES_00492" lat="42.070" lon="2.654" intensity="6.4" name="Santa Maria de Granollers de Rocacorba"/>
  <station source="OLIAL006" netid="INTENSITY" code="ES_00493" lat="42.264" lon="2.485" intensity="6.4" name="Santa Maria de la Costa"/>
  <station source="OLIAL006" netid="INTENSITY" code="ES_00495" lat="42.099" lon="2.873" intensity="6.4" name="Santa Maria de les Olives"/>
  <station source="OLIAL006" netid="INTENSITY" code="ES_00498" lat="42.249" lon="2.816" intensity="6.4" name="Santa Maria de Lledó"/>
  <station source="OLIAL006" netid="INTENSITY" code="ES_00499" lat="42.074" lon="2.680" intensity="6.4" name="Santa Maria de Rocacorba"/>
  <station source="OLIAL006" netid="INTENSITY" code="ES_00502" lat="42.235" lon="2.636" intensity="6.4" name="Santa Maria de Tortellà"/>
  <station source="OLIAL006" netid="INTENSITY" code="ES_00504" lat="42.114" lon="2.853" intensity="6.4" name="Santa Maria de Vilamarí"/>
  <station source="OLIAL006" netid="INTENSITY" code="ES_00505" lat="42.153" lon="2.659" intensity="6.4" name="Santa Maria del Colell"/>
  <station source="OLIAL006" netid="INTENSITY" code="ES_00507" lat="41.959" lon="2.526" intensity="6.4" name="Santa Maria del Coll"/>
  <station source="OLIAL006" netid="INTENSITY" code="ES_00537" lat="41.736" lon="1.978" intensity="6.4" name="Talamanca"/>
  <station source="OLIAL006" netid="INTENSITY" code="FR_00038" lat="43.933" lon="2.150" intensity="6.0" name="Albi"/>
  <station source="OLIAL006" netid="INTENSITY" code="ES_00124" lat="42.261" lon="3.075" intensity="6.0" name="Castelló d'Empúries"/>
  <station source="OLIAL006" netid="INTENSITY" code="ES_00128" lat="41.450" lon="1.901" intensity="6.0" name="Castellví de Rosanes"/>
  <station source="OLIAL006" netid="INTENSITY" code="FR_00951" lat="43.092" lon="2.621" intensity="6.0" name="Grassa, la"/>
  <station source="OLIAL006" netid="INTENSITY" code="FR_01688" lat="43.183" lon="3.000" intensity="6.0" name="Narbonne"/>
  <station source="OLIAL006" netid="INTENSITY" code="FR_01805" lat="42.700" lon="2.900" intensity="6.0" name="Perpignan"/>
  <station source="OLIAL006" netid="INTENSITY" code="FR_02444" lat="43.332" lon="2.037" intensity="6.0" name="Sant Pàpol"/>
  <station source="OLIAL006" netid="INTENSITY" code="FR_02627" lat="43.600" lon="1.450" intensity="6.0" name="Toulouse"/>
  <station source="OLIAL006" netid="INTENSITY" code="FR_01373" lat="43.058" lon="2.219" intensity="5.5" name="Limós"/>
  <station source="OLIAL006" netid="INTENSITY" code="ES_00517" lat="41.545" lon="1.299" intensity="5.5" name="Savallà del Comtat"/>
  <station source="OLIAL006" netid="INTENSITY" code="ES_00568" lat="41.403" lon="2.070" intensity="5.5" name="Valldonzella"/>
  <station source="OLIAL006" netid="INTENSITY" code="ES_00580" lat="41.930" lon="2.256" intensity="5.5" name="Vic"/>
  <station source="OLIAL006" netid="INTENSITY" code="ES_00050" lat="41.599" lon="1.445" intensity="5.0" name="Argençola"/>
  <station source="OLIAL006" netid="INTENSITY" code="FR_00406" lat="44.450" lon="1.433" intensity="5.0" name="Cahors"/>
  <station source="OLIAL006" netid="INTENSITY" code="ES_00218" lat="41.616" lon="0.624" intensity="5.0" name="Lleida"/>
  <station source="OLIAL006" netid="INTENSITY" code="ES_00236" lat="41.729" lon="1.827" intensity="5.0" name="Manresa"/>
  <station source="OLIAL006" netid="INTENSITY" code="ES_00554" lat="40.812" lon="0.523" intensity="5.0" name="Tortosa"/>
  <station source="OLIAL006" netid="INTENSITY" code="FR_00173" lat="43.950" lon="4.817" intensity="4.0" name="AVIGNON"/>
  <station source="OLIAL006" netid="INTENSITY" code="FR_00879" lat="42.578" lon="2.918" intensity="1.8" name="Fontclara"/>
  <station source="OLIAL006" netid="INTENSITY" code="FR_01741" lat="42.556" lon="2.271" intensity="1.8" name="Oleta"/>
  <station source="OLIAL006" netid="INTENSITY" code="ES_00401" lat="41.586" lon="1.582" intensity="1.8" name="Sant Jaume Sesoliveres"/>
</stationlist>
