<?xml version="1.0" encoding="UTF-8"?>
<stationlist reference="DBMI15v4" created="20250821143440">
  <station source="IGN010" netid="INTENSITY" code="ES_00029" lat="36.833" lon="-2.450" intensity="8.5" name="Almería"/>
  <station source="IGN010" netid="INTENSITY" code="ES_00059" lat="36.989" lon="-2.738" intensity="8.5" name="Barriada de Alcora"/>
  <station source="IGN010" netid="INTENSITY" code="ES_00106" lat="37.011" lon="-2.738" intensity="8.5" name="Canjayar"/>
  <station source="IGN010" netid="INTENSITY" code="ES_00213" lat="36.995" lon="-2.893" intensity="8.5" name="Laujar de Andarax"/>
  <station source="IGN010" netid="INTENSITY" code="ES_00274" lat="37.038" lon="-2.744" intensity="8.5" name="Ohanes"/>
  <station source="IGN010" netid="INTENSITY" code="ES_00288" lat="37.000" lon="-2.773" intensity="8.5" name="Padules"/>
  <station source="IGN010" netid="INTENSITY" code="ES_00559" lat="36.964" lon="-3.053" intensity="8.5" name="Ugíjar"/>
  <station source="IGN010" netid="INTENSITY" code="ES_00079" lat="36.849" lon="-2.948" intensity="7.5" name="Berja"/>
  <station source="IGN010" netid="INTENSITY" code="ES_00185" lat="37.122" lon="-2.538" intensity="7.5" name="Gergal"/>
  <station source="IGN010" netid="INTENSITY" code="ES_00189" lat="37.178" lon="-3.599" intensity="6.5" name="Granada"/>
  <station source="IGN010" netid="INTENSITY" code="ES_00534" lat="37.051" lon="-2.390" intensity="6.5" name="Tabernas"/>
  <station source="IGN010" netid="INTENSITY" code="ES_00062" lat="37.492" lon="-2.774" intensity="5.5" name="Baza"/>
  <station source="IGN010" netid="INTENSITY" code="ES_00196" lat="37.301" lon="-3.136" intensity="3.9" name="Guadix"/>
  <station source="IGN010" netid="INTENSITY" code="ES_00232" lat="36.722" lon="-4.419" intensity="3.9" name="Málaga"/>
</stationlist>
