<?xml version="1.0" encoding="UTF-8"?>
<stationlist reference="DBMI15v4" created="20250808064908">
  <station source="CFTI5med" netid="INTENSITY" code="IT_68043" lat="37.231" lon="15.221" intensity="8.5" name="Augusta"/>
  <station source="CFTI5med" netid="INTENSITY" code="IT_67809" lat="37.502" lon="15.087" intensity="7.0" name="Catania"/>
  <station source="CFTI5med" netid="INTENSITY" code="IT_67945" lat="37.700" lon="15.144" intensity="7.0" name="Dagala del Re"/>
  <station source="CFTI5med" netid="INTENSITY" code="IT_71452" lat="37.719" lon="15.166" intensity="7.0" name="Macchia"/>
  <station source="CFTI5med" netid="INTENSITY" code="IT_67857" lat="37.574" lon="15.050" intensity="7.0" name="Mascalucia"/>
  <station source="CFTI5med" netid="INTENSITY" code="IT_67859" lat="37.591" lon="15.039" intensity="7.0" name="Massa Annunziata"/>
  <station source="CFTI5med" netid="INTENSITY" code="IT_71454" lat="37.715" lon="15.140" intensity="7.0" name="Moscarello"/>
  <station source="CFTI5med" netid="INTENSITY" code="IT_67876" lat="37.512" lon="14.969" intensity="7.0" name="Motta Sant'Anastasia"/>
  <station source="CFTI5med" netid="INTENSITY" code="IT_67877" lat="37.614" lon="15.026" intensity="7.0" name="Nicolosi"/>
  <station source="CFTI5med" netid="INTENSITY" code="IT_68079" lat="36.890" lon="15.070" intensity="7.0" name="Noto"/>
  <station source="CFTI5med" netid="INTENSITY" code="IT_67886" lat="37.618" lon="15.062" intensity="7.0" name="Pedara"/>
  <station source="CFTI5med" netid="INTENSITY" code="IT_68105" lat="37.073" lon="15.286" intensity="7.0" name="Siracusa"/>
  <station source="CFTI5med" netid="INTENSITY" code="IT_67698" lat="37.555" lon="15.147" intensity="6.0" name="Aci Castello"/>
  <station source="CFTI5med" netid="INTENSITY" code="IT_67716" lat="37.613" lon="15.166" intensity="6.0" name="Acireale"/>
  <station source="CFTI5med" netid="INTENSITY" code="IT_67868" lat="37.266" lon="14.691" intensity="6.0" name="Mineo"/>
  <station source="CFTI5med" netid="INTENSITY" code="IT_67925" lat="37.579" lon="15.094" intensity="6.0" name="San Giovanni la Punta"/>
  <station source="CFTI5med" netid="INTENSITY" code="IT_67969" lat="37.610" lon="15.098" intensity="6.0" name="Viagrande"/>
  <station source="CFTI5med" netid="INTENSITY" code="IT_68055" lat="36.908" lon="15.135" intensity="5.5" name="Avola"/>
  <station source="CFTI5med" netid="INTENSITY" code="IT_68100" lat="37.092" lon="15.208" intensity="5.5" name="Belvedere"/>
  <station source="CFTI5med" netid="INTENSITY" code="IT_68059" lat="37.033" lon="15.062" intensity="5.5" name="Canicattini Bagni"/>
  <station source="CFTI5med" netid="INTENSITY" code="IT_68062" lat="37.106" lon="14.949" intensity="5.5" name="Cassaro"/>
  <station source="CFTI5med" netid="INTENSITY" code="IT_67987" lat="36.946" lon="14.606" intensity="5.5" name="Comiso"/>
  <station source="CFTI5med" netid="INTENSITY" code="IT_68063" lat="37.119" lon="14.940" intensity="5.5" name="Ferla"/>
  <station source="CFTI5med" netid="INTENSITY" code="IT_68064" lat="37.082" lon="15.153" intensity="5.5" name="Floridia"/>
  <station source="CFTI5med" netid="INTENSITY" code="IT_67992" lat="36.786" lon="14.910" intensity="5.5" name="Ispica"/>
  <station source="CFTI5med" netid="INTENSITY" code="IT_68074" lat="37.179" lon="15.128" intensity="5.5" name="Melilli"/>
  <station source="CFTI5med" netid="INTENSITY" code="IT_68001" lat="36.858" lon="14.761" intensity="5.5" name="Modica"/>
  <station source="CFTI5med" netid="INTENSITY" code="IT_68095" lat="37.062" lon="14.903" intensity="5.5" name="Palazzolo Acreide"/>
  <station source="CFTI5med" netid="INTENSITY" code="IT_68103" lat="37.157" lon="15.186" intensity="5.5" name="Priolo Gargallo"/>
  <station source="CFTI5med" netid="INTENSITY" code="IT_68108" lat="37.100" lon="15.119" intensity="5.5" name="Solarino"/>
  <station source="CFTI5med" netid="INTENSITY" code="IT_68109" lat="37.156" lon="15.027" intensity="5.5" name="Sortino"/>
  <station source="CFTI5med" netid="INTENSITY" code="IT_67909" lat="37.731" lon="15.203" intensity="5.0" name="Riposto"/>
  <station source="CFTI5med" netid="INTENSITY" code="IT_66973" lat="38.185" lon="15.555" intensity="4.5" name="Messina"/>
  <station source="CFTI5med" netid="INTENSITY" code="IT_67984" lat="37.025" lon="14.494" intensity="4.0" name="Acate"/>
  <station source="CFTI5med" netid="INTENSITY" code="IT_67985" lat="37.031" lon="14.702" intensity="4.0" name="Chiaramonte Gulfi"/>
  <station source="CFTI5med" netid="INTENSITY" code="IT_68091" lat="36.715" lon="15.091" intensity="4.0" name="Pachino"/>
  <station source="CFTI5med" netid="INTENSITY" code="IT_68019" lat="36.926" lon="14.729" intensity="4.0" name="Ragusa"/>
  <station source="CFTI5med" netid="INTENSITY" code="IT_68097" lat="36.820" lon="14.949" intensity="4.0" name="Rosolini"/>
  <station source="CFTI5med" netid="INTENSITY" code="IT_68032" lat="36.792" lon="14.706" intensity="4.0" name="Scicli"/>
  <station source="CFTI5med" netid="INTENSITY" code="IT_68034" lat="36.950" lon="14.532" intensity="4.0" name="Vittoria"/>
  <station source="CFTI5med" netid="INTENSITY" code="IT_67594" lat="37.490" lon="14.063" intensity="3.0" name="Caltanissetta"/>
</stationlist>
