<?xml version="1.0" encoding="UTF-8"?>
<stationlist reference="DBMI15v4" created="20250808064908">
  <station source="CFTI5med" netid="INTENSITY" code="IT_63034" lat="40.124" lon="15.764" intensity="9.0" name="Lagonegro"/>
  <station source="CFTI5med" netid="INTENSITY" code="IT_61333" lat="40.215" lon="15.681" intensity="8.0" name="Casalbuono"/>
  <station source="CFTI5med" netid="INTENSITY" code="IT_62953" lat="40.163" lon="15.992" intensity="8.0" name="Castelsaraceno"/>
  <station source="CFTI5med" netid="INTENSITY" code="IT_63060" lat="40.046" lon="15.837" intensity="8.0" name="Lauria"/>
  <station source="CFTI5med" netid="INTENSITY" code="IT_61625" lat="40.275" lon="15.702" intensity="8.0" name="Montesano sulla Marcellana"/>
  <station source="CFTI5med" netid="INTENSITY" code="IT_63172" lat="40.067" lon="15.800" intensity="8.0" name="Nemoli"/>
  <station source="CFTI5med" netid="INTENSITY" code="IT_62945" lat="40.140" lon="16.088" intensity="7.5" name="Carbone"/>
  <station source="CFTI5med" netid="INTENSITY" code="IT_62976" lat="40.124" lon="16.213" intensity="7.5" name="Chiaromonte"/>
  <station source="CFTI5med" netid="INTENSITY" code="IT_62980" lat="40.383" lon="16.041" intensity="7.5" name="Corleto Perticara"/>
  <station source="CFTI5med" netid="INTENSITY" code="IT_63056" lat="40.087" lon="16.011" intensity="7.5" name="Latronico"/>
  <station source="CFTI5med" netid="INTENSITY" code="IT_63166" lat="40.297" lon="15.991" intensity="7.5" name="Montemurro"/>
  <station source="CFTI5med" netid="INTENSITY" code="IT_63273" lat="40.077" lon="15.757" intensity="7.5" name="Rivello"/>
  <station source="CFTI5med" netid="INTENSITY" code="IT_63346" lat="40.315" lon="15.790" intensity="7.5" name="Tramutola"/>
  <station source="CFTI5med" netid="INTENSITY" code="IT_63351" lat="40.026" lon="15.777" intensity="7.0" name="Trecchina"/>
  <station source="CFTI5med" netid="INTENSITY" code="IT_60182" lat="40.849" lon="14.250" intensity="5.0" name="Napoli"/>
  <station source="CFTI5med" netid="INTENSITY" code="IT_63228" lat="40.638" lon="15.802" intensity="4.0" name="Potenza"/>
  <station source="CFTI5med" netid="INTENSITY" code="IT_64431" lat="39.814" lon="15.792" intensity="1.8" name="Scalea"/>
</stationlist>
