<?xml version="1.0" encoding="UTF-8"?>
<stationlist reference="DBMI15v4" created="20250808064910">
  <station source="CFTI5med" netid="INTENSITY" code="IT_23768" lat="45.562" lon="11.207" intensity="9.0" name="Castelvero"/>
  <station source="CFTI5med" netid="INTENSITY" code="IT_22243" lat="45.565" lon="11.154" intensity="8.5" name="Badia Calavena"/>
  <station source="CFTI5med" netid="INTENSITY" code="IT_23527" lat="45.522" lon="11.154" intensity="8.5" name="Marcemigo"/>
  <station source="CFTI5med" netid="INTENSITY" code="IT_23907" lat="45.620" lon="11.249" intensity="8.0" name="Caussi"/>
  <station source="CFTI5med" netid="INTENSITY" code="IT_23524" lat="45.544" lon="11.156" intensity="8.0" name="Cogollo"/>
  <station source="CFTI5med" netid="INTENSITY" code="IT_22240" lat="45.553" lon="11.146" intensity="8.0" name="Tessari"/>
  <station source="CFTI5med" netid="INTENSITY" code="IT_22253" lat="45.597" lon="11.153" intensity="8.0" name="Trettene"/>
  <station source="CFTI5med" netid="INTENSITY" code="IT_23918" lat="45.615" lon="11.229" intensity="7.5" name="Bauci"/>
  <station source="CFTI5med" netid="INTENSITY" code="IT_23209" lat="45.523" lon="11.236" intensity="7.5" name="San Giovanni Ilarione"/>
  <station source="CFTI5med" netid="INTENSITY" code="IT_23288" lat="45.565" lon="11.113" intensity="7.5" name="San Mauro di Saline"/>
  <station source="CFTI5med" netid="INTENSITY" code="IT_23523" lat="45.534" lon="11.151" intensity="7.5" name="Scorgnano"/>
  <station source="CFTI5med" netid="INTENSITY" code="IT_23530" lat="45.512" lon="11.166" intensity="7.5" name="Tregnago"/>
  <station source="CFTI5med" netid="INTENSITY" code="IT_23779" lat="45.573" lon="11.228" intensity="7.5" name="Vestenanova"/>
  <station source="CFTI5med" netid="INTENSITY" code="IT_23763" lat="45.594" lon="11.208" intensity="7.0" name="Bolca"/>
  <station source="CFTI5med" netid="INTENSITY" code="IT_22882" lat="45.491" lon="11.106" intensity="7.0" name="Castagnè"/>
  <station source="CFTI5med" netid="INTENSITY" code="IT_22493" lat="45.472" lon="11.204" intensity="7.0" name="Cazzano di Tramigna"/>
  <station source="CFTI5med" netid="INTENSITY" code="IT_22713" lat="45.484" lon="11.178" intensity="7.0" name="Cellore"/>
  <station source="CFTI5med" netid="INTENSITY" code="IT_24245" lat="45.544" lon="11.283" intensity="7.0" name="Chiampo"/>
  <station source="CFTI5med" netid="INTENSITY" code="IT_23277" lat="45.455" lon="11.106" intensity="7.0" name="Marcellise"/>
  <station source="CFTI5med" netid="INTENSITY" code="IT_22884" lat="45.493" lon="11.136" intensity="7.0" name="Mezzane di Sopra"/>
  <station source="CFTI5med" netid="INTENSITY" code="IT_22890" lat="45.481" lon="11.128" intensity="7.0" name="Mezzane di Sotto"/>
  <station source="CFTI5med" netid="INTENSITY" code="IT_22885" lat="45.498" lon="11.119" intensity="7.0" name="Postuman"/>
  <station source="CFTI5med" netid="INTENSITY" code="IT_25575" lat="45.651" lon="11.304" intensity="7.0" name="Valdagno"/>
  <station source="CFTI5med" netid="INTENSITY" code="IT_23792" lat="45.568" lon="11.216" intensity="7.0" name="Vestenavecchia"/>
  <station source="CFTI5med" netid="INTENSITY" code="IT_22892" lat="45.482" lon="11.134" intensity="6.5" name="Casale"/>
  <station source="CFTI5med" netid="INTENSITY" code="IT_22310" lat="45.583" lon="11.044" intensity="6.5" name="Gonzi"/>
  <station source="CFTI5med" netid="INTENSITY" code="IT_22696" lat="45.520" lon="11.017" intensity="6.5" name="Grezzana"/>
  <station source="CFTI5med" netid="INTENSITY" code="IT_22700" lat="45.573" lon="10.992" intensity="6.5" name="Lugo"/>
  <station source="CFTI5med" netid="INTENSITY" code="IT_70045" lat="45.504" lon="11.013" intensity="6.5" name="Marzana"/>
  <station source="CFTI5med" netid="INTENSITY" code="IT_22904" lat="45.484" lon="11.254" intensity="6.5" name="Montecchia di Crosara"/>
  <station source="CFTI5med" netid="INTENSITY" code="IT_22985" lat="45.291" lon="10.885" intensity="6.5" name="Nogarole Rocca"/>
  <station source="CFTI5med" netid="INTENSITY" code="IT_22586" lat="45.571" lon="10.758" intensity="6.0" name="Albaré Stazione"/>
  <station source="CFTI5med" netid="INTENSITY" code="IT_23906" lat="45.614" lon="11.253" intensity="6.0" name="Altissimo"/>
  <station source="CFTI5med" netid="INTENSITY" code="IT_23972" lat="45.521" lon="11.338" intensity="6.0" name="Arzignano"/>
  <station source="CFTI5med" netid="INTENSITY" code="IT_23726" lat="45.471" lon="10.989" intensity="6.0" name="Avesa"/>
  <station source="CFTI5med" netid="INTENSITY" code="IT_22690" lat="45.546" lon="11.046" intensity="6.0" name="Azzago"/>
  <station source="CFTI5med" netid="INTENSITY" code="IT_22259" lat="45.548" lon="10.721" intensity="6.0" name="Bardolino"/>
  <station source="CFTI5med" netid="INTENSITY" code="IT_23084" lat="45.504" lon="11.286" intensity="6.0" name="Brenton"/>
  <station source="CFTI5med" netid="INTENSITY" code="IT_22639" lat="45.624" lon="10.905" intensity="6.0" name="Breonio"/>
  <station source="CFTI5med" netid="INTENSITY" code="IT_22755" lat="45.438" lon="11.136" intensity="6.0" name="Casale"/>
  <station source="CFTI5med" netid="INTENSITY" code="IT_22535" lat="45.194" lon="11.213" intensity="6.0" name="Cerea"/>
  <station source="CFTI5med" netid="INTENSITY" code="IT_25544" lat="45.617" lon="11.275" intensity="6.0" name="Cerealto"/>
  <station source="CFTI5med" netid="INTENSITY" code="IT_22568" lat="45.432" lon="11.193" intensity="6.0" name="Colognola ai Colli"/>
  <station source="CFTI5med" netid="INTENSITY" code="IT_38290" lat="44.914" lon="10.982" intensity="6.0" name="Concordia sulla Secchia"/>
  <station source="CFTI5med" netid="INTENSITY" code="IT_23593" lat="45.613" lon="11.109" intensity="6.0" name="Corre"/>
  <station source="CFTI5med" netid="INTENSITY" code="IT_22695" lat="45.511" lon="11.013" intensity="6.0" name="Cuzzano"/>
  <station source="CFTI5med" netid="INTENSITY" code="IT_22629" lat="45.676" lon="10.854" intensity="6.0" name="Ferrara di Monte Baldo"/>
  <station source="CFTI5med" netid="INTENSITY" code="IT_22720" lat="45.466" lon="11.183" intensity="6.0" name="Illasi"/>
  <station source="CFTI5med" netid="INTENSITY" code="IT_24429" lat="45.637" lon="11.219" intensity="6.0" name="Marana"/>
  <station source="CFTI5med" netid="INTENSITY" code="IT_38539" lat="44.887" lon="11.065" intensity="6.0" name="Mirandola"/>
  <station source="CFTI5med" netid="INTENSITY" code="IT_23622" lat="45.477" lon="11.059" intensity="6.0" name="Mizzole"/>
  <station source="CFTI5med" netid="INTENSITY" code="IT_22922" lat="45.420" lon="11.285" intensity="6.0" name="Monteforte d'Alpone"/>
  <station source="CFTI5med" netid="INTENSITY" code="IT_23678" lat="45.459" lon="11.066" intensity="6.0" name="Montorio"/>
  <station source="CFTI5med" netid="INTENSITY" code="IT_23639" lat="45.517" lon="11.109" intensity="6.0" name="Moruri"/>
  <station source="CFTI5med" netid="INTENSITY" code="IT_22868" lat="45.558" lon="10.911" intensity="6.0" name="Pezza"/>
  <station source="CFTI5med" netid="INTENSITY" code="IT_25558" lat="45.613" lon="11.300" intensity="6.0" name="Piana"/>
  <station source="CFTI5med" netid="INTENSITY" code="IT_23707" lat="45.472" lon="11.016" intensity="6.0" name="Poiano"/>
  <station source="CFTI5med" netid="INTENSITY" code="IT_25007" lat="45.790" lon="11.262" intensity="6.0" name="Posina"/>
  <station source="CFTI5med" netid="INTENSITY" code="IT_22957" lat="45.575" lon="10.951" intensity="6.0" name="Prun"/>
  <station source="CFTI5med" netid="INTENSITY" code="IT_23607" lat="45.615" lon="11.095" intensity="6.0" name="Purga"/>
  <station source="CFTI5med" netid="INTENSITY" code="IT_23735" lat="45.497" lon="11.017" intensity="6.0" name="Quinto"/>
  <station source="CFTI5med" netid="INTENSITY" code="IT_25060" lat="45.703" lon="11.221" intensity="6.0" name="Recoaro Terme"/>
  <station source="CFTI5med" netid="INTENSITY" code="IT_23086" lat="45.479" lon="11.290" intensity="6.0" name="Roncà"/>
  <station source="CFTI5med" netid="INTENSITY" code="IT_21839" lat="45.888" lon="11.037" intensity="6.0" name="Rovereto"/>
  <station source="CFTI5med" netid="INTENSITY" code="IT_16874" lat="45.606" lon="10.522" intensity="6.0" name="Salò"/>
  <station source="CFTI5med" netid="INTENSITY" code="IT_23871" lat="45.348" lon="11.342" intensity="6.0" name="San Martino"/>
  <station source="CFTI5med" netid="INTENSITY" code="IT_23282" lat="45.420" lon="11.096" intensity="6.0" name="San Martino Buon Albergo"/>
  <station source="CFTI5med" netid="INTENSITY" code="IT_23331" lat="45.520" lon="10.887" intensity="6.0" name="San Pietro in Cariano"/>
  <station source="CFTI5med" netid="INTENSITY" code="IT_22252" lat="45.594" lon="11.151" intensity="6.0" name="Sant'Andrea"/>
  <station source="CFTI5med" netid="INTENSITY" code="IT_23410" lat="45.611" lon="11.139" intensity="6.0" name="Selva di Progno"/>
  <station source="CFTI5med" netid="INTENSITY" code="IT_23713" lat="45.439" lon="10.926" intensity="6.0" name="Seminario"/>
  <station source="CFTI5med" netid="INTENSITY" code="IT_23429" lat="45.418" lon="11.248" intensity="6.0" name="Soave"/>
  <station source="CFTI5med" netid="INTENSITY" code="IT_23481" lat="45.433" lon="10.832" intensity="6.0" name="Sona"/>
  <station source="CFTI5med" netid="INTENSITY" code="IT_22709" lat="45.545" lon="11.003" intensity="6.0" name="Stallavena"/>
  <station source="CFTI5med" netid="INTENSITY" code="IT_24005" lat="45.534" lon="11.368" intensity="6.0" name="Tezze"/>
  <station source="CFTI5med" netid="INTENSITY" code="IT_25505" lat="45.564" lon="11.371" intensity="6.0" name="Trissino"/>
  <station source="CFTI5med" netid="INTENSITY" code="IT_22136" lat="45.782" lon="11.118" intensity="6.0" name="Vallarsa (Raossi)"/>
  <station source="CFTI5med" netid="INTENSITY" code="IT_25678" lat="45.739" lon="11.261" intensity="6.0" name="Valli del Pasubio"/>
  <station source="CFTI5med" netid="INTENSITY" code="IT_23733" lat="45.489" lon="11.037" intensity="6.0" name="Vendri"/>
  <station source="CFTI5med" netid="INTENSITY" code="IT_22643" lat="45.580" lon="10.882" intensity="6.0" name="Verago"/>
  <station source="CFTI5med" netid="INTENSITY" code="IT_23679" lat="45.439" lon="10.994" intensity="6.0" name="Verona"/>
  <station source="CFTI5med" netid="INTENSITY" code="IT_22196" lat="45.552" lon="10.772" intensity="5.5" name="Affi"/>
  <station source="CFTI5med" netid="INTENSITY" code="IT_24053" lat="45.409" lon="11.540" intensity="5.5" name="Barbarano Vicentino"/>
  <station source="CFTI5med" netid="INTENSITY" code="IT_22343" lat="45.655" lon="10.893" intensity="5.5" name="Brentino Belluno (Rivalta)"/>
  <station source="CFTI5med" netid="INTENSITY" code="IT_22397" lat="45.412" lon="11.184" intensity="5.5" name="Caldiero"/>
  <station source="CFTI5med" netid="INTENSITY" code="IT_22405" lat="45.605" lon="10.795" intensity="5.5" name="Caprino Veronese"/>
  <station source="CFTI5med" netid="INTENSITY" code="IT_21337" lat="46.175" lon="11.221" intensity="5.5" name="Cembra"/>
  <station source="CFTI5med" netid="INTENSITY" code="IT_23364" lat="45.620" lon="10.975" intensity="5.5" name="Ceredo"/>
  <station source="CFTI5med" netid="INTENSITY" code="IT_23373" lat="45.622" lon="10.943" intensity="5.5" name="Cona"/>
  <station source="CFTI5med" netid="INTENSITY" code="IT_22596" lat="45.587" lon="10.744" intensity="5.5" name="Costermano"/>
  <station source="CFTI5med" netid="INTENSITY" code="IT_24413" lat="45.619" lon="11.227" intensity="5.5" name="Crespadoro"/>
  <station source="CFTI5med" netid="INTENSITY" code="IT_16177" lat="45.689" lon="10.664" intensity="5.5" name="Gargnano"/>
  <station source="CFTI5med" netid="INTENSITY" code="IT_22737" lat="45.272" lon="11.008" intensity="5.5" name="Isola della Scala"/>
  <station source="CFTI5med" netid="INTENSITY" code="IT_22749" lat="45.291" lon="11.202" intensity="5.5" name="Isola Rizza"/>
  <station source="CFTI5med" netid="INTENSITY" code="IT_24618" lat="45.387" lon="11.388" intensity="5.5" name="Lonigo"/>
  <station source="CFTI5med" netid="INTENSITY" code="IT_21628" lat="45.852" lon="10.978" intensity="5.5" name="Mori"/>
  <station source="CFTI5med" netid="INTENSITY" code="IT_23689" lat="45.477" lon="10.947" intensity="5.5" name="Parona"/>
  <station source="CFTI5med" netid="INTENSITY" code="IT_22704" lat="45.524" lon="11.041" intensity="5.5" name="Romagnano"/>
  <station source="CFTI5med" netid="INTENSITY" code="IT_25220" lat="45.863" lon="11.400" intensity="5.5" name="Rotzo"/>
  <station source="CFTI5med" netid="INTENSITY" code="IT_30077" lat="45.071" lon="11.791" intensity="5.5" name="Rovigo"/>
  <station source="CFTI5med" netid="INTENSITY" code="IT_25270" lat="45.587" lon="11.257" intensity="5.5" name="San Pietro Mussolino"/>
  <station source="CFTI5med" netid="INTENSITY" code="IT_25372" lat="45.749" lon="11.347" intensity="5.5" name="Sant'Ulderico"/>
  <station source="CFTI5med" netid="INTENSITY" code="IT_22490" lat="45.520" lon="10.803" intensity="5.5" name="Sega Ragano"/>
  <station source="CFTI5med" netid="INTENSITY" code="IT_19202" lat="45.399" lon="9.874" intensity="5.5" name="Soncino"/>
  <station source="CFTI5med" netid="INTENSITY" code="IT_12358" lat="46.216" lon="10.169" intensity="5.5" name="Tirano"/>
  <station source="CFTI5med" netid="INTENSITY" code="IT_23605" lat="45.605" lon="11.096" intensity="5.5" name="Velo Veronese"/>
  <station source="CFTI5med" netid="INTENSITY" code="IT_23834" lat="45.354" lon="10.845" intensity="5.5" name="Villafranca di Verona"/>
  <station source="CFTI5med" netid="INTENSITY" code="IT_23869" lat="45.373" lon="11.134" intensity="5.5" name="Zevio"/>
  <station source="CFTI5med" netid="INTENSITY" code="IT_22205" lat="45.317" lon="11.274" intensity="5.0" name="Albaredo d'Adige"/>
  <station source="CFTI5med" netid="INTENSITY" code="IT_25925" lat="46.552" lon="12.439" intensity="5.0" name="Auronzo di Cadore"/>
  <station source="CFTI5med" netid="INTENSITY" code="IT_29651" lat="45.094" lon="11.492" intensity="5.0" name="Badia Polesine"/>
  <station source="CFTI5med" netid="INTENSITY" code="IT_24065" lat="45.767" lon="11.734" intensity="5.0" name="Bassano del Grappa"/>
  <station source="CFTI5med" netid="INTENSITY" code="IT_25935" lat="46.139" lon="12.218" intensity="5.0" name="Belluno"/>
  <station source="CFTI5med" netid="INTENSITY" code="IT_22340" lat="45.686" lon="10.900" intensity="5.0" name="Belluno Veronese"/>
  <station source="CFTI5med" netid="INTENSITY" code="IT_19655" lat="44.945" lon="10.857" intensity="5.0" name="Bondeno"/>
  <station source="CFTI5med" netid="INTENSITY" code="IT_23485" lat="45.184" lon="11.008" intensity="5.0" name="Bonferraro"/>
  <station source="CFTI5med" netid="INTENSITY" code="IT_24095" lat="45.707" lon="11.565" intensity="5.0" name="Breganze"/>
  <station source="CFTI5med" netid="INTENSITY" code="IT_22342" lat="45.642" lon="10.873" intensity="5.0" name="Brentino"/>
  <station source="CFTI5med" netid="INTENSITY" code="IT_15818" lat="45.539" lon="10.220" intensity="5.0" name="Brescia"/>
  <station source="CFTI5med" netid="INTENSITY" code="IT_23174" lat="45.204" lon="11.051" intensity="5.0" name="Calcinaro"/>
  <station source="CFTI5med" netid="INTENSITY" code="IT_23393" lat="45.637" lon="11.155" intensity="5.0" name="Campofontana"/>
  <station source="CFTI5med" netid="INTENSITY" code="IT_19455" lat="45.188" lon="10.975" intensity="5.0" name="Castel d'Ario"/>
  <station source="CFTI5med" netid="INTENSITY" code="IT_24226" lat="45.584" lon="11.395" intensity="5.0" name="Castelgomberto"/>
  <station source="CFTI5med" netid="INTENSITY" code="IT_23319" lat="45.497" lon="10.902" intensity="5.0" name="Castelrotto"/>
  <station source="CFTI5med" netid="INTENSITY" code="IT_23522" lat="45.525" lon="11.134" intensity="5.0" name="Centro"/>
  <station source="CFTI5med" netid="INTENSITY" code="IT_22544" lat="45.574" lon="11.042" intensity="5.0" name="Cerro Veronese"/>
  <station source="CFTI5med" netid="INTENSITY" code="IT_16884" lat="45.595" lon="10.537" intensity="5.0" name="Cisano"/>
  <station source="CFTI5med" netid="INTENSITY" code="IT_22549" lat="45.309" lon="11.385" intensity="5.0" name="Cologna Veneta"/>
  <station source="CFTI5med" netid="INTENSITY" code="IT_26894" lat="45.887" lon="12.298" intensity="5.0" name="Conegliano"/>
  <station source="CFTI5med" netid="INTENSITY" code="IT_18772" lat="45.135" lon="10.023" intensity="5.0" name="Cremona"/>
  <station source="CFTI5med" netid="INTENSITY" code="IT_16112" lat="45.471" lon="10.537" intensity="5.0" name="Desenzano del Garda"/>
  <station source="CFTI5med" netid="INTENSITY" code="IT_22935" lat="45.580" lon="10.965" intensity="5.0" name="Fane"/>
  <station source="CFTI5med" netid="INTENSITY" code="IT_23362" lat="45.597" lon="10.976" intensity="5.0" name="Giare"/>
  <station source="CFTI5med" netid="INTENSITY" code="IT_23397" lat="45.653" lon="11.122" intensity="5.0" name="Giazza"/>
  <station source="CFTI5med" netid="INTENSITY" code="IT_22925" lat="45.314" lon="10.862" intensity="5.0" name="Grezzano"/>
  <station source="CFTI5med" netid="INTENSITY" code="IT_24595" lat="45.915" lon="11.272" intensity="5.0" name="Lastebasse"/>
  <station source="CFTI5med" netid="INTENSITY" code="IT_22772" lat="45.506" lon="10.734" intensity="5.0" name="Lazise"/>
  <station source="CFTI5med" netid="INTENSITY" code="IT_22816" lat="45.192" lon="11.311" intensity="5.0" name="Legnago"/>
  <station source="CFTI5med" netid="INTENSITY" code="IT_37592" lat="44.960" lon="10.690" intensity="5.0" name="Luzzara"/>
  <station source="CFTI5med" netid="INTENSITY" code="IT_22856" lat="45.764" lon="10.809" intensity="5.0" name="Malcesine"/>
  <station source="CFTI5med" netid="INTENSITY" code="IT_16371" lat="45.550" lon="10.557" intensity="5.0" name="Manerba del Garda (Solarolo)"/>
  <station source="CFTI5med" netid="INTENSITY" code="IT_24717" lat="45.692" lon="11.430" intensity="5.0" name="Marano Vicentino"/>
  <station source="CFTI5med" netid="INTENSITY" code="IT_22894" lat="45.241" lon="11.338" intensity="5.0" name="Minerbe"/>
  <station source="CFTI5med" netid="INTENSITY" code="IT_27115" lat="45.561" lon="12.234" intensity="5.0" name="Mogliano Veneto"/>
  <station source="CFTI5med" netid="INTENSITY" code="IT_22651" lat="45.611" lon="10.912" intensity="5.0" name="Molina"/>
  <station source="CFTI5med" netid="INTENSITY" code="IT_29053" lat="45.232" lon="11.466" intensity="5.0" name="Montagnana"/>
  <station source="CFTI5med" netid="INTENSITY" code="IT_24808" lat="45.665" lon="11.564" intensity="5.0" name="Montecchio Precalcino"/>
  <station source="CFTI5med" netid="INTENSITY" code="IT_13492" lat="45.584" lon="9.274" intensity="5.0" name="Monza"/>
  <station source="CFTI5med" netid="INTENSITY" code="IT_23321" lat="45.497" lon="10.894" intensity="5.0" name="Negarine"/>
  <station source="CFTI5med" netid="INTENSITY" code="IT_22978" lat="45.175" lon="11.066" intensity="5.0" name="Nogara"/>
  <station source="CFTI5med" netid="INTENSITY" code="IT_23738" lat="45.475" lon="11.039" intensity="5.0" name="Novaglie"/>
  <station source="CFTI5med" netid="INTENSITY" code="IT_22789" lat="45.466" lon="10.720" intensity="5.0" name="Pacengo"/>
  <station source="CFTI5med" netid="INTENSITY" code="IT_31248" lat="45.905" lon="13.310" intensity="5.0" name="Palmanova"/>
  <station source="CFTI5med" netid="INTENSITY" code="IT_23047" lat="45.438" lon="10.694" intensity="5.0" name="Peschiera del Garda"/>
  <station source="CFTI5med" netid="INTENSITY" code="IT_16676" lat="45.806" lon="10.109" intensity="5.0" name="Pisogne"/>
  <station source="CFTI5med" netid="INTENSITY" code="IT_16718" lat="46.259" lon="10.511" intensity="5.0" name="Ponte di Legno"/>
  <station source="CFTI5med" netid="INTENSITY" code="IT_22341" lat="45.624" lon="10.860" intensity="5.0" name="Preabocco"/>
  <station source="CFTI5med" netid="INTENSITY" code="IT_23072" lat="45.284" lon="11.402" intensity="5.0" name="Pressana"/>
  <station source="CFTI5med" netid="INTENSITY" code="IT_16679" lat="45.803" lon="10.116" intensity="5.0" name="Ronchi"/>
  <station source="CFTI5med" netid="INTENSITY" code="IT_19963" lat="45.134" lon="10.955" intensity="5.0" name="Roncoferraro"/>
  <station source="CFTI5med" netid="INTENSITY" code="IT_23737" lat="45.496" lon="11.036" intensity="5.0" name="Santa Maria in Stelle"/>
  <station source="CFTI5med" netid="INTENSITY" code="IT_23330" lat="45.491" lon="10.907" intensity="5.0" name="Sausto"/>
  <station source="CFTI5med" netid="INTENSITY" code="IT_25380" lat="45.711" lon="11.356" intensity="5.0" name="Schio"/>
  <station source="CFTI5med" netid="INTENSITY" code="IT_23742" lat="45.503" lon="11.029" intensity="5.0" name="Sezano"/>
  <station source="CFTI5med" netid="INTENSITY" code="IT_28362" lat="45.490" lon="12.165" intensity="5.0" name="Spinea (Orgnano)"/>
  <station source="CFTI5med" netid="INTENSITY" code="IT_30128" lat="44.940" lon="11.544" intensity="5.0" name="Stienta"/>
  <station source="CFTI5med" netid="INTENSITY" code="IT_25432" lat="45.707" lon="11.478" intensity="5.0" name="Thiene"/>
  <station source="CFTI5med" netid="INTENSITY" code="IT_23539" lat="45.269" lon="10.934" intensity="5.0" name="Trevenzuolo"/>
  <station source="CFTI5med" netid="INTENSITY" code="IT_27624" lat="45.666" lon="12.245" intensity="5.0" name="Treviso"/>
  <station source="CFTI5med" netid="INTENSITY" code="IT_28470" lat="45.438" lon="12.336" intensity="5.0" name="Venezia"/>
  <station source="CFTI5med" netid="INTENSITY" code="IT_20194" lat="44.929" lon="10.522" intensity="5.0" name="Viadana"/>
  <station source="CFTI5med" netid="INTENSITY" code="IT_25814" lat="45.548" lon="11.546" intensity="5.0" name="Vicenza"/>
  <station source="CFTI5med" netid="INTENSITY" code="IT_23816" lat="45.158" lon="11.353" intensity="5.0" name="Villa Bartolomea"/>
  <station source="CFTI5med" netid="INTENSITY" code="IT_20209" lat="45.141" lon="11.034" intensity="5.0" name="Villimpenta"/>
  <station source="CFTI5med" netid="INTENSITY" code="IT_28492" lat="45.360" lon="11.790" intensity="4.5" name="Abano Terme"/>
  <station source="CFTI5med" netid="INTENSITY" code="IT_40315" lat="44.615" lon="11.837" intensity="4.5" name="Argenta"/>
  <station source="CFTI5med" netid="INTENSITY" code="IT_23956" lat="45.803" lon="11.354" intensity="4.5" name="Arsiero"/>
  <station source="CFTI5med" netid="INTENSITY" code="IT_39249" lat="44.646" lon="11.535" intensity="4.5" name="Baricella"/>
  <station source="CFTI5med" netid="INTENSITY" code="IT_14353" lat="45.694" lon="9.671" intensity="4.5" name="Bergamo"/>
  <station source="CFTI5med" netid="INTENSITY" code="IT_40365" lat="44.889" lon="11.417" intensity="4.5" name="Bondeno"/>
  <station source="CFTI5med" netid="INTENSITY" code="IT_21219" lat="46.052" lon="11.458" intensity="4.5" name="Borgo Valsugana"/>
  <station source="CFTI5med" netid="INTENSITY" code="IT_08393" lat="44.750" lon="8.527" intensity="4.5" name="Cassine"/>
  <station source="CFTI5med" netid="INTENSITY" code="IT_14672" lat="45.888" lon="9.950" intensity="4.5" name="Clusone"/>
  <station source="CFTI5med" netid="INTENSITY" code="IT_26058" lat="46.540" lon="12.138" intensity="4.5" name="Cortina d'Ampezzo"/>
  <station source="CFTI5med" netid="INTENSITY" code="IT_29820" lat="44.982" lon="11.885" intensity="4.5" name="Crespino"/>
  <station source="CFTI5med" netid="INTENSITY" code="IT_29485" lat="45.222" lon="11.842" intensity="4.5" name="Favaro"/>
  <station source="CFTI5med" netid="INTENSITY" code="IT_24580" lat="45.629" lon="11.443" intensity="4.5" name="Isola Vicentina"/>
  <station source="CFTI5med" netid="INTENSITY" code="IT_28032" lat="45.536" lon="12.640" intensity="4.5" name="Jesolo"/>
  <station source="CFTI5med" netid="INTENSITY" code="IT_24623" lat="45.397" lon="11.338" intensity="4.5" name="Lobia Vicentina"/>
  <station source="CFTI5med" netid="INTENSITY" code="IT_13310" lat="45.314" lon="9.505" intensity="4.5" name="Lodi"/>
  <station source="CFTI5med" netid="INTENSITY" code="IT_19701" lat="45.158" lon="10.794" intensity="4.5" name="Mantova"/>
  <station source="CFTI5med" netid="INTENSITY" code="IT_11401" lat="45.698" lon="9.420" intensity="4.5" name="Merate"/>
  <station source="CFTI5med" netid="INTENSITY" code="IT_13462" lat="45.464" lon="9.191" intensity="4.5" name="Milano"/>
  <station source="CFTI5med" netid="INTENSITY" code="IT_38628" lat="44.647" lon="10.926" intensity="4.5" name="Modena"/>
  <station source="CFTI5med" netid="INTENSITY" code="IT_17807" lat="45.252" lon="8.737" intensity="4.5" name="Mortara"/>
  <station source="CFTI5med" netid="INTENSITY" code="IT_19319" lat="45.149" lon="10.483" intensity="4.5" name="Mosio"/>
  <station source="CFTI5med" netid="INTENSITY" code="IT_23466" lat="45.452" lon="10.818" intensity="4.5" name="Palazzolo"/>
  <station source="CFTI5med" netid="INTENSITY" code="IT_29930" lat="45.047" lon="12.178" intensity="4.5" name="Retinella"/>
  <station source="CFTI5med" netid="INTENSITY" code="IT_23262" lat="45.183" lon="11.152" intensity="4.5" name="Sanguinetto"/>
  <station source="CFTI5med" netid="INTENSITY" code="IT_12272" lat="46.171" lon="9.872" intensity="4.5" name="Sondrio"/>
  <station source="CFTI5med" netid="INTENSITY" code="IT_14053" lat="45.576" lon="9.528" intensity="4.5" name="Vaprio d'Adda"/>
  <station source="CFTI5med" netid="INTENSITY" code="IT_22166" lat="46.078" lon="11.000" intensity="4.5" name="Vezzano"/>
  <station source="CFTI5med" netid="INTENSITY" code="IT_23801" lat="45.317" lon="10.942" intensity="4.5" name="Vigasio"/>
  <station source="CFTI5med" netid="INTENSITY" code="IT_18405" lat="45.317" lon="8.856" intensity="4.5" name="Vigevano"/>
  <station source="CFTI5med" netid="INTENSITY" code="IT_08062" lat="44.913" lon="8.615" intensity="4.0" name="Alessandria"/>
  <station source="CFTI5med" netid="INTENSITY" code="IT_26705" lat="45.801" lon="11.914" intensity="4.0" name="Asolo"/>
  <station source="CFTI5med" netid="INTENSITY" code="IT_30191" lat="46.064" lon="12.585" intensity="4.0" name="Aviano"/>
  <station source="CFTI5med" netid="INTENSITY" code="IT_12558" lat="45.656" lon="9.129" intensity="4.0" name="Barlassina"/>
  <station source="CFTI5med" netid="INTENSITY" code="IT_53124" lat="42.193" lon="13.234" intensity="4.0" name="Borgorose"/>
  <station source="CFTI5med" netid="INTENSITY" code="IT_11960" lat="46.468" lon="10.372" intensity="4.0" name="Bormio"/>
  <station source="CFTI5med" netid="INTENSITY" code="IT_22354" lat="45.705" lon="10.766" intensity="4.0" name="Brenzone (Magugnano-Marniga)"/>
  <station source="CFTI5med" netid="INTENSITY" code="IT_22380" lat="45.341" lon="10.999" intensity="4.0" name="Buttapietra"/>
  <station source="CFTI5med" netid="INTENSITY" code="IT_23661" lat="45.382" lon="10.996" intensity="4.0" name="Ca' di David"/>
  <station source="CFTI5med" netid="INTENSITY" code="IT_51576" lat="43.138" lon="13.226" intensity="4.0" name="Caldarola"/>
  <station source="CFTI5med" netid="INTENSITY" code="IT_22437" lat="45.170" lon="11.196" intensity="4.0" name="Casaleone"/>
  <station source="CFTI5med" netid="INTENSITY" code="IT_17340" lat="45.312" lon="9.018" intensity="4.0" name="Casorate Primo"/>
  <station source="CFTI5med" netid="INTENSITY" code="IT_29743" lat="45.017" lon="11.311" intensity="4.0" name="Castelmassa"/>
  <station source="CFTI5med" netid="INTENSITY" code="IT_43261" lat="44.109" lon="10.411" intensity="4.0" name="Castelnuovo di Garfagnana"/>
  <station source="CFTI5med" netid="INTENSITY" code="IT_18683" lat="45.307" lon="9.942" intensity="4.0" name="Castelvisconti"/>
  <station source="CFTI5med" netid="INTENSITY" code="IT_22642" lat="45.569" lon="10.872" intensity="4.0" name="Cavalo"/>
  <station source="CFTI5med" netid="INTENSITY" code="IT_38282" lat="44.838" lon="11.028" intensity="4.0" name="Cavezzo"/>
  <station source="CFTI5med" netid="INTENSITY" code="IT_12021" lat="46.322" lon="9.402" intensity="4.0" name="Chiavenna"/>
  <station source="CFTI5med" netid="INTENSITY" code="IT_28849" lat="45.211" lon="11.715" intensity="4.0" name="Chiesa di Schiavonia"/>
  <station source="CFTI5med" netid="INTENSITY" code="IT_27887" lat="45.219" lon="12.279" intensity="4.0" name="Chioggia"/>
  <station source="CFTI5med" netid="INTENSITY" code="IT_40475" lat="44.694" lon="12.183" intensity="4.0" name="Comacchio"/>
  <station source="CFTI5med" netid="INTENSITY" code="IT_12141" lat="46.151" lon="9.538" intensity="4.0" name="Consiglio"/>
  <station source="CFTI5med" netid="INTENSITY" code="IT_11146" lat="46.151" lon="9.324" intensity="4.0" name="Domaso"/>
  <station source="CFTI5med" netid="INTENSITY" code="IT_04216" lat="46.117" lon="8.292" intensity="4.0" name="Domodossola"/>
  <station source="CFTI5med" netid="INTENSITY" code="IT_40627" lat="44.835" lon="11.620" intensity="4.0" name="Ferrara"/>
  <station source="CFTI5med" netid="INTENSITY" code="IT_45020" lat="43.773" lon="11.257" intensity="4.0" name="Firenze"/>
  <station source="CFTI5med" netid="INTENSITY" code="IT_26958" lat="45.951" lon="12.119" intensity="4.0" name="Follina"/>
  <station source="CFTI5med" netid="INTENSITY" code="IT_33336" lat="44.419" lon="8.898" intensity="4.0" name="Genova"/>
  <station source="CFTI5med" netid="INTENSITY" code="IT_23470" lat="45.404" lon="10.793" intensity="4.0" name="Guastalla Nuova"/>
  <station source="CFTI5med" netid="INTENSITY" code="IT_36267" lat="44.614" lon="10.268" intensity="4.0" name="Langhirano"/>
  <station source="CFTI5med" netid="INTENSITY" code="IT_31034" lat="45.777" lon="12.998" intensity="4.0" name="Latisana"/>
  <station source="CFTI5med" netid="INTENSITY" code="IT_11305" lat="45.853" lon="9.393" intensity="4.0" name="Lecco"/>
  <station source="CFTI5med" netid="INTENSITY" code="IT_41277" lat="44.419" lon="11.910" intensity="4.0" name="Lugo"/>
  <station source="CFTI5med" netid="INTENSITY" code="IT_14944" lat="45.566" lon="9.640" intensity="4.0" name="Lurano"/>
  <station source="CFTI5med" netid="INTENSITY" code="IT_30390" lat="46.167" lon="12.708" intensity="4.0" name="Maniago"/>
  <station source="CFTI5med" netid="INTENSITY" code="IT_22280" lat="45.200" lon="11.396" intensity="4.0" name="Marega"/>
  <station source="CFTI5med" netid="INTENSITY" code="IT_42518" lat="44.037" lon="10.142" intensity="4.0" name="Massa"/>
  <station source="CFTI5med" netid="INTENSITY" code="IT_12171" lat="46.137" lon="9.570" intensity="4.0" name="Morbegno"/>
  <station source="CFTI5med" netid="INTENSITY" code="IT_04477" lat="45.447" lon="8.622" intensity="4.0" name="Novara"/>
  <station source="CFTI5med" netid="INTENSITY" code="IT_37630" lat="44.845" lon="10.731" intensity="4.0" name="Novellara"/>
  <station source="CFTI5med" netid="INTENSITY" code="IT_08811" lat="44.764" lon="8.788" intensity="4.0" name="Novi Ligure"/>
  <station source="CFTI5med" netid="INTENSITY" code="IT_27192" lat="45.781" lon="12.494" intensity="4.0" name="Oderzo"/>
  <station source="CFTI5med" netid="INTENSITY" code="IT_29123" lat="45.407" lon="11.875" intensity="4.0" name="Padova"/>
  <station source="CFTI5med" netid="INTENSITY" code="IT_11403" lat="45.708" lon="9.409" intensity="4.0" name="Pagnano-Cicognola"/>
  <station source="CFTI5med" netid="INTENSITY" code="IT_36605" lat="44.801" lon="10.330" intensity="4.0" name="Parma"/>
  <station source="CFTI5med" netid="INTENSITY" code="IT_13598" lat="45.417" lon="9.398" intensity="4.0" name="Paullo"/>
  <station source="CFTI5med" netid="INTENSITY" code="IT_17853" lat="45.185" lon="9.155" intensity="4.0" name="Pavia"/>
  <station source="CFTI5med" netid="INTENSITY" code="IT_36688" lat="44.732" lon="9.929" intensity="4.0" name="Pellegrino Parmense"/>
  <station source="CFTI5med" netid="INTENSITY" code="IT_35341" lat="45.052" lon="9.693" intensity="4.0" name="Piacenza"/>
  <station source="CFTI5med" netid="INTENSITY" code="IT_26622" lat="46.064" lon="12.408" intensity="4.0" name="Piano del Cansiglio"/>
  <station source="CFTI5med" netid="INTENSITY" code="IT_29192" lat="45.296" lon="12.035" intensity="4.0" name="Piove di Sacco"/>
  <station source="CFTI5med" netid="INTENSITY" code="IT_30470" lat="45.959" lon="12.658" intensity="4.0" name="Pordenone"/>
  <station source="CFTI5med" netid="INTENSITY" code="IT_41366" lat="44.493" lon="12.275" intensity="4.0" name="Porto Corsini"/>
  <station source="CFTI5med" netid="INTENSITY" code="IT_28218" lat="45.775" lon="12.843" intensity="4.0" name="Portogruaro"/>
  <station source="CFTI5med" netid="INTENSITY" code="IT_03348" lat="45.714" lon="8.230" intensity="4.0" name="Postua"/>
  <station source="CFTI5med" netid="INTENSITY" code="IT_41374" lat="44.418" lon="12.197" intensity="4.0" name="Ravenna"/>
  <station source="CFTI5med" netid="INTENSITY" code="IT_23123" lat="45.272" lon="11.248" intensity="4.0" name="Roverchiara"/>
  <station source="CFTI5med" netid="INTENSITY" code="IT_23128" lat="45.260" lon="11.264" intensity="4.0" name="Roverchiaretta"/>
  <station source="CFTI5med" netid="INTENSITY" code="IT_23259" lat="45.384" lon="11.042" intensity="4.0" name="San Giovanni Lupatoto"/>
  <station source="CFTI5med" netid="INTENSITY" code="IT_23313" lat="45.242" lon="11.229" intensity="4.0" name="San Pietro di Morubio"/>
  <station source="CFTI5med" netid="INTENSITY" code="IT_50927" lat="43.864" lon="12.209" intensity="4.0" name="Sant'Agata Feltria"/>
  <station source="CFTI5med" netid="INTENSITY" code="IT_11406" lat="45.715" lon="9.419" intensity="4.0" name="Sartirana"/>
  <station source="CFTI5med" netid="INTENSITY" code="IT_02356" lat="45.070" lon="7.674" intensity="4.0" name="Torino"/>
  <station source="CFTI5med" netid="INTENSITY" code="IT_22075" lat="46.068" lon="11.122" intensity="4.0" name="Trento"/>
  <station source="CFTI5med" netid="INTENSITY" code="IT_31830" lat="46.063" lon="13.234" intensity="4.0" name="Udine"/>
  <station source="CFTI5med" netid="INTENSITY" code="IT_23568" lat="45.354" lon="10.735" intensity="4.0" name="Valeggio sul Mincio"/>
  <station source="CFTI5med" netid="INTENSITY" code="IT_10636" lat="45.820" lon="8.826" intensity="4.0" name="Varese"/>
  <station source="CFTI5med" netid="INTENSITY" code="IT_39191" lat="44.482" lon="11.007" intensity="4.0" name="Vignola"/>
  <station source="CFTI5med" netid="INTENSITY" code="IT_18431" lat="44.993" lon="9.010" intensity="4.0" name="Voghera"/>
  <station source="CFTI5med" netid="INTENSITY" code="IT_10698" lat="45.797" lon="9.164" intensity="3.9" name="Albese con Cassano"/>
  <station source="CFTI5med" netid="INTENSITY" code="IT_21037" lat="47.021" lon="12.048" intensity="3.9" name="Am Griesbach"/>
  <station source="CFTI5med" netid="INTENSITY" code="IT_20270" lat="46.454" lon="11.263" intensity="3.9" name="Appiano sulla Strada del Vino (San Michele)"/>
  <station source="CFTI5med" netid="INTENSITY" code="IT_29624" lat="44.945" lon="12.127" intensity="3.9" name="Ariano nel Polesine"/>
  <station source="CFTI5med" netid="INTENSITY" code="IT_25894" lat="45.982" lon="11.758" intensity="3.9" name="Arsiè"/>
  <station source="CFTI5med" netid="INTENSITY" code="IT_19332" lat="45.221" lon="10.413" intensity="3.9" name="Asola"/>
  <station source="CFTI5med" netid="INTENSITY" code="IT_70027" lat="46.326" lon="10.326" intensity="3.9" name="Bolladore"/>
  <station source="CFTI5med" netid="INTENSITY" code="IT_20302" lat="46.499" lon="11.352" intensity="3.9" name="Bolzano"/>
  <station source="CFTI5med" netid="INTENSITY" code="IT_22305" lat="45.621" lon="11.029" intensity="3.9" name="Bosco Chiesanuova"/>
  <station source="CFTI5med" netid="INTENSITY" code="IT_29202" lat="45.211" lon="11.584" intensity="3.9" name="Bresega"/>
  <station source="CFTI5med" netid="INTENSITY" code="IT_20321" lat="46.715" lon="11.657" intensity="3.9" name="Bressanone"/>
  <station source="CFTI5med" netid="INTENSITY" code="IT_20338" lat="46.796" lon="11.941" intensity="3.9" name="Brunico"/>
  <station source="CFTI5med" netid="INTENSITY" code="IT_28652" lat="45.568" lon="11.932" intensity="3.9" name="Camposampiero"/>
  <station source="CFTI5med" netid="INTENSITY" code="IT_24476" lat="45.728" lon="11.551" intensity="3.9" name="Capovilla"/>
  <station source="CFTI5med" netid="INTENSITY" code="IT_14548" lat="45.497" lon="9.644" intensity="3.9" name="Caravaggio"/>
  <station source="CFTI5med" netid="INTENSITY" code="IT_17365" lat="45.013" lon="9.124" intensity="3.9" name="Casteggio"/>
  <station source="CFTI5med" netid="INTENSITY" code="IT_26803" lat="45.671" lon="11.926" intensity="3.9" name="Castelfranco Veneto"/>
  <station source="CFTI5med" netid="INTENSITY" code="IT_22344" lat="45.686" lon="10.750" intensity="3.9" name="Castelletto di Brenzone"/>
  <station source="CFTI5med" netid="INTENSITY" code="IT_21323" lat="46.291" lon="11.460" intensity="3.9" name="Cavalese"/>
  <station source="CFTI5med" netid="INTENSITY" code="IT_20530" lat="46.612" lon="10.636" intensity="3.9" name="Cengles"/>
  <station source="CFTI5med" netid="INTENSITY" code="IT_17436" lat="45.153" lon="9.488" intensity="3.9" name="Chignolo Po"/>
  <station source="CFTI5med" netid="INTENSITY" code="IT_20410" lat="46.641" lon="11.569" intensity="3.9" name="Chiusa"/>
  <station source="CFTI5med" netid="INTENSITY" code="IT_40451" lat="44.831" lon="12.106" intensity="3.9" name="Codigoro"/>
  <station source="CFTI5med" netid="INTENSITY" code="IT_11138" lat="46.090" lon="9.310" intensity="3.9" name="Corenno Plinio"/>
  <station source="CFTI5med" netid="INTENSITY" code="IT_37489" lat="44.771" lon="10.779" intensity="3.9" name="Correggio"/>
  <station source="CFTI5med" netid="INTENSITY" code="IT_20431" lat="46.268" lon="11.222" intensity="3.9" name="Cortina sulla Strada del Vino"/>
  <station source="CFTI5med" netid="INTENSITY" code="IT_39625" lat="44.722" lon="11.147" intensity="3.9" name="Crevalcore"/>
  <station source="CFTI5med" netid="INTENSITY" code="IT_24722" lat="45.773" lon="11.614" intensity="3.9" name="Crosara"/>
  <station source="CFTI5med" netid="INTENSITY" code="IT_22625" lat="45.639" lon="11.002" intensity="3.9" name="Erbezzo"/>
  <station source="CFTI5med" netid="INTENSITY" code="IT_26108" lat="46.019" lon="11.906" intensity="3.9" name="Feltre"/>
  <station source="CFTI5med" netid="INTENSITY" code="IT_20470" lat="46.788" lon="11.612" intensity="3.9" name="Fortezza"/>
  <station source="CFTI5med" netid="INTENSITY" code="IT_23357" lat="45.644" lon="10.937" intensity="3.9" name="Fosse"/>
  <station source="CFTI5med" netid="INTENSITY" code="IT_10325" lat="45.659" lon="8.793" intensity="3.9" name="Gallarate"/>
  <station source="CFTI5med" netid="INTENSITY" code="IT_22652" lat="45.576" lon="10.709" intensity="3.9" name="Garda"/>
  <station source="CFTI5med" netid="INTENSITY" code="IT_30995" lat="46.279" lon="13.135" intensity="3.9" name="Gemona del Friuli"/>
  <station source="CFTI5med" netid="INTENSITY" code="IT_20490" lat="46.670" lon="10.554" intensity="3.9" name="Glorenza"/>
  <station source="CFTI5med" netid="INTENSITY" code="IT_21497" lat="46.230" lon="11.298" intensity="3.9" name="Grauno"/>
  <station source="CFTI5med" netid="INTENSITY" code="IT_37545" lat="44.921" lon="10.654" intensity="3.9" name="Guastalla"/>
  <station source="CFTI5med" netid="INTENSITY" code="AT_00245" lat="47.267" lon="11.403" intensity="3.9" name="Innsbruck"/>
  <station source="CFTI5med" netid="INTENSITY" code="IT_20525" lat="46.613" lon="11.157" intensity="3.9" name="Lana"/>
  <station source="CFTI5med" netid="INTENSITY" code="IT_33076" lat="44.415" lon="9.379" intensity="3.9" name="Levaggi"/>
  <station source="CFTI5med" netid="INTENSITY" code="IT_21562" lat="46.011" lon="11.303" intensity="3.9" name="Levico Terme"/>
  <station source="CFTI5med" netid="INTENSITY" code="IT_26283" lat="46.269" lon="12.301" intensity="3.9" name="Longarone"/>
  <station source="CFTI5med" netid="INTENSITY" code="IT_43402" lat="43.843" lon="10.505" intensity="3.9" name="Lucca"/>
  <station source="CFTI5med" netid="INTENSITY" code="IT_21581" lat="45.921" lon="11.324" intensity="3.9" name="Luserna"/>
  <station source="CFTI5med" netid="INTENSITY" code="IT_24727" lat="45.744" lon="11.657" intensity="3.9" name="Marostica"/>
  <station source="CFTI5med" netid="INTENSITY" code="IT_14961" lat="45.570" lon="9.768" intensity="3.9" name="Martinengo"/>
  <station source="CFTI5med" netid="INTENSITY" code="IT_24760" lat="45.718" lon="11.608" intensity="3.9" name="Mason Vicentino"/>
  <station source="CFTI5med" netid="INTENSITY" code="IT_17654" lat="45.096" lon="8.736" intensity="3.9" name="Mede"/>
  <station source="CFTI5med" netid="INTENSITY" code="IT_11390" lat="46.021" lon="9.237" intensity="3.9" name="Menaggio"/>
  <station source="CFTI5med" netid="INTENSITY" code="IT_20611" lat="46.671" lon="11.162" intensity="3.9" name="Merano"/>
  <station source="CFTI5med" netid="INTENSITY" code="IT_21595" lat="46.316" lon="10.801" intensity="3.9" name="Mezzana"/>
  <station source="CFTI5med" netid="INTENSITY" code="IT_24895" lat="45.490" lon="11.363" intensity="3.9" name="Montorso Vicentino"/>
  <station source="CFTI5med" netid="INTENSITY" code="IT_20364" lat="46.854" lon="11.522" intensity="3.9" name="Mules"/>
  <station source="CFTI5med" netid="INTENSITY" code="IT_28425" lat="45.456" lon="12.355" intensity="3.9" name="Murano"/>
  <station source="CFTI5med" netid="INTENSITY" code="IT_27247" lat="45.858" lon="11.989" intensity="3.9" name="Onigo"/>
  <station source="CFTI5med" netid="INTENSITY" code="IT_20675" lat="46.575" lon="11.672" intensity="3.9" name="Ortisei"/>
  <station source="CFTI5med" netid="INTENSITY" code="IT_08864" lat="44.862" lon="8.487" intensity="3.9" name="Oviglio"/>
  <station source="CFTI5med" netid="INTENSITY" code="IT_29979" lat="44.985" lon="12.029" intensity="3.9" name="Papozze"/>
  <station source="CFTI5med" netid="INTENSITY" code="IT_10993" lat="45.699" lon="9.397" intensity="3.9" name="Paravino"/>
  <station source="CFTI5med" netid="INTENSITY" code="IT_53433" lat="42.206" lon="13.148" intensity="3.9" name="Pescorocchiano"/>
  <station source="CFTI5med" netid="INTENSITY" code="IT_43782" lat="44.132" lon="10.411" intensity="3.9" name="Pieve Fosciana"/>
  <station source="CFTI5med" netid="INTENSITY" code="IT_03330" lat="45.582" lon="8.003" intensity="3.9" name="Pollone"/>
  <station source="CFTI5med" netid="INTENSITY" code="IT_40932" lat="44.698" lon="11.805" intensity="3.9" name="Portomaggiore"/>
  <station source="CFTI5med" netid="INTENSITY" code="IT_37794" lat="44.698" lon="10.631" intensity="3.9" name="Reggio nell'Emilia"/>
  <station source="CFTI5med" netid="INTENSITY" code="IT_20344" lat="46.776" lon="11.954" intensity="3.9" name="Riscone"/>
  <station source="CFTI5med" netid="INTENSITY" code="IT_20785" lat="46.239" lon="11.213" intensity="3.9" name="Salorno"/>
  <station source="CFTI5med" netid="INTENSITY" code="IT_20791" lat="46.732" lon="12.282" intensity="3.9" name="San Candido"/>
  <station source="CFTI5med" netid="INTENSITY" code="IT_31520" lat="46.157" lon="13.010" intensity="3.9" name="San Daniele del Friuli"/>
  <station source="CFTI5med" netid="INTENSITY" code="IT_20802" lat="46.811" lon="11.246" intensity="3.9" name="San Leonardo in Passiria"/>
  <station source="CFTI5med" netid="INTENSITY" code="IT_20816" lat="46.783" lon="11.902" intensity="3.9" name="San Lorenzo di Sebato"/>
  <station source="CFTI5med" netid="INTENSITY" code="IT_21865" lat="46.194" lon="11.135" intensity="3.9" name="San Michele all'Adige"/>
  <station source="CFTI5med" netid="INTENSITY" code="IT_37763" lat="44.675" lon="10.698" intensity="3.9" name="San Nicola"/>
  <station source="CFTI5med" netid="INTENSITY" code="IT_20419" lat="46.438" lon="11.475" intensity="3.9" name="San Valentino in Campo"/>
  <station source="CFTI5med" netid="INTENSITY" code="IT_23375" lat="45.627" lon="10.952" intensity="3.9" name="Sant'Anna d'Alfaedo"/>
  <station source="CFTI5med" netid="INTENSITY" code="IT_15287" lat="45.983" lon="9.625" intensity="3.9" name="Santa Brigida (Colla Muggiasca)"/>
  <station source="CFTI5med" netid="INTENSITY" code="IT_26481" lat="46.081" lon="12.042" intensity="3.9" name="Santa Giustina"/>
  <station source="CFTI5med" netid="INTENSITY" code="IT_33849" lat="44.547" lon="9.449" intensity="3.9" name="Santo Stefano d'Aveto"/>
  <station source="CFTI5med" netid="INTENSITY" code="IT_20866" lat="46.642" lon="11.357" intensity="3.9" name="Sarentino"/>
  <station source="CFTI5med" netid="INTENSITY" code="IT_20646" lat="46.647" lon="10.979" intensity="3.9" name="Senales"/>
  <station source="CFTI5med" netid="INTENSITY" code="IT_20910" lat="46.628" lon="10.774" intensity="3.9" name="Silandro"/>
  <station source="CFTI5med" netid="INTENSITY" code="IT_21910" lat="46.221" lon="11.316" intensity="3.9" name="Sover"/>
  <station source="CFTI5med" netid="INTENSITY" code="IT_21920" lat="46.051" lon="10.854" intensity="3.9" name="Stenico"/>
  <station source="CFTI5med" netid="INTENSITY" code="IT_20942" lat="46.531" lon="11.251" intensity="3.9" name="Terlano"/>
  <station source="CFTI5med" netid="INTENSITY" code="IT_22008" lat="46.035" lon="10.725" intensity="3.9" name="Tione di Trento"/>
  <station source="CFTI5med" netid="INTENSITY" code="IT_10407" lat="45.582" lon="8.717" intensity="3.9" name="Tornavento"/>
  <station source="CFTI5med" netid="INTENSITY" code="IT_22751" lat="45.464" lon="11.127" intensity="3.9" name="Turano"/>
  <station source="CFTI5med" netid="INTENSITY" code="IT_27648" lat="45.901" lon="11.996" intensity="3.9" name="Valdobbiadene"/>
  <station source="CFTI5med" netid="INTENSITY" code="IT_34410" lat="44.377" lon="9.592" intensity="3.9" name="Varese Ligure"/>
  <station source="CFTI5med" netid="INTENSITY" code="IT_21073" lat="46.669" lon="11.600" intensity="3.9" name="Velturno"/>
  <station source="CFTI5med" netid="INTENSITY" code="IT_17044" lat="45.326" lon="10.076" intensity="3.9" name="Verolanuova"/>
  <station source="CFTI5med" netid="INTENSITY" code="IT_21085" lat="46.895" lon="11.431" intensity="3.9" name="Vipiteno"/>
  <station source="CFTI5med" netid="INTENSITY" code="IT_27725" lat="45.982" lon="12.305" intensity="3.9" name="Vittorio Veneto"/>
  <station source="CFTI5med" netid="INTENSITY" code="IT_40311" lat="44.490" lon="11.217" intensity="3.9" name="Zola Predosa"/>
  <station source="CFTI5med" netid="INTENSITY" code="IT_26685" lat="46.384" lon="12.176" intensity="3.9" name="Zoppè di Cadore (Bortolot)"/>
  <station source="CFTI5med" netid="INTENSITY" code="IT_34835" lat="44.996" lon="9.932" intensity="3.5" name="Cortemaggiore"/>
  <station source="CFTI5med" netid="INTENSITY" code="IT_38313" lat="44.207" lon="10.794" intensity="3.5" name="Fanano"/>
  <station source="CFTI5med" netid="INTENSITY" code="IT_38345" lat="44.540" lon="10.812" intensity="3.5" name="Fiorano Modenese"/>
  <station source="CFTI5med" netid="INTENSITY" code="IT_14910" lat="45.635" lon="9.873" intensity="3.5" name="Grumello del Monte"/>
  <station source="CFTI5med" netid="INTENSITY" code="IT_11276" lat="45.705" lon="9.446" intensity="3.5" name="Imbersago"/>
  <station source="CFTI5med" netid="INTENSITY" code="IT_39904" lat="44.477" lon="11.639" intensity="3.5" name="Medicina"/>
  <station source="CFTI5med" netid="INTENSITY" code="IT_51050" lat="43.726" lon="12.636" intensity="3.5" name="Urbino"/>
  <station source="CFTI5med" netid="INTENSITY" code="IT_03761" lat="45.816" lon="8.254" intensity="3.5" name="Varallo"/>
  <station source="CFTI5med" netid="INTENSITY" code="IT_07260" lat="44.899" lon="8.208" intensity="3.0" name="Asti"/>
  <station source="CFTI5med" netid="INTENSITY" code="IT_39296" lat="44.494" lon="11.343" intensity="3.0" name="Bologna"/>
  <station source="CFTI5med" netid="INTENSITY" code="IT_02821" lat="45.716" lon="8.275" intensity="3.0" name="Borgosesia"/>
  <station source="CFTI5med" netid="INTENSITY" code="IT_39566" lat="44.141" lon="11.161" intensity="3.0" name="Castiglione dei Pepoli"/>
  <station source="CFTI5med" netid="INTENSITY" code="IT_14534" lat="45.750" lon="9.493" intensity="3.0" name="Celana"/>
  <station source="CFTI5med" netid="INTENSITY" code="IT_12952" lat="45.524" lon="9.330" intensity="3.0" name="Cernusco sul Naviglio"/>
  <station source="CFTI5med" netid="INTENSITY" code="IT_33219" lat="44.317" lon="9.322" intensity="3.0" name="Chiavari"/>
  <station source="CFTI5med" netid="INTENSITY" code="IT_12992" lat="45.161" lon="9.705" intensity="3.0" name="Codogno"/>
  <station source="CFTI5med" netid="INTENSITY" code="IT_13033" lat="45.468" lon="8.920" intensity="3.0" name="Corbetta"/>
  <station source="CFTI5med" netid="INTENSITY" code="IT_45103" lat="44.119" lon="11.379" intensity="3.0" name="Firenzuola"/>
  <station source="CFTI5med" netid="INTENSITY" code="IT_17545" lat="45.196" lon="8.922" intensity="3.0" name="Garlasco"/>
  <station source="CFTI5med" netid="INTENSITY" code="IT_17608" lat="45.177" lon="8.991" intensity="3.0" name="Gropello Cairoli"/>
  <station source="CFTI5med" netid="INTENSITY" code="IT_45336" lat="44.076" lon="11.613" intensity="3.0" name="Marradi"/>
  <station source="CFTI5med" netid="INTENSITY" code="IT_11544" lat="45.785" lon="8.968" intensity="3.0" name="Olgiate Comasco"/>
  <station source="CFTI5med" netid="INTENSITY" code="IT_46303" lat="43.718" lon="10.402" intensity="3.0" name="Pisa"/>
  <station source="CFTI5med" netid="INTENSITY" code="IT_26511" lat="46.460" lon="12.206" intensity="3.0" name="San Vito di Cadore"/>
  <station source="CFTI5med" netid="INTENSITY" code="IT_39139" lat="44.229" lon="10.771" intensity="3.0" name="Sestola"/>
  <station source="CFTI5med" netid="INTENSITY" code="IT_50936" lat="43.826" lon="12.802" intensity="3.0" name="Vallefoglia (Sant'Angelo in Lizzola)"/>
  <station source="CFTI5med" netid="INTENSITY" code="IT_03815" lat="45.833" lon="8.195" intensity="3.0" name="Vocca"/>
  <station source="CFTI5med" netid="INTENSITY" code="IT_10502" lat="46.103" lon="8.753" intensity="3.0" name="Zenna"/>
  <station source="CFTI5med" netid="INTENSITY" code="IT_34243" lat="44.075" lon="9.912" intensity="2.5" name="Lerici"/>
  <station source="CFTI5med" netid="INTENSITY" code="IT_44294" lat="43.933" lon="10.915" intensity="2.5" name="Pistoia"/>
  <station source="CFTI5med" netid="INTENSITY" code="IT_32084" lat="45.650" lon="13.772" intensity="2.5" name="Trieste"/>
  <station source="CFTI5med" netid="INTENSITY" code="IT_09643" lat="45.686" lon="7.854" intensity="2.0" name="Issime"/>
  <station source="CFTI5med" netid="INTENSITY" code="IT_01426" lat="45.000" lon="7.685" intensity="2.0" name="Moncalieri"/>
  <station source="CFTI5med" netid="INTENSITY" code="IT_54180" lat="41.899" lon="12.477" intensity="2.0" name="Roma"/>
  <station source="CFTI5med" netid="INTENSITY" code="IT_30536" lat="46.016" lon="12.865" intensity="2.0" name="San Martino al Tagliamento"/>
</stationlist>
