<?xml version="1.0" encoding="UTF-8"?>
<stationlist reference="DBMI15v4" created="20250808065336">
  <station source="UNITH003" netid="INTENSITY" code="GR_00386" lat="37.467" lon="23.167" intensity="7.0" name="Disyma"/>
  <station source="UNITH003" netid="INTENSITY" code="GR_00407" lat="37.370" lon="23.220" intensity="7.0" name="Ermioni"/>
  <station source="UNITH003" netid="INTENSITY" code="GR_00157" lat="37.348" lon="23.466" intensity="7.0" name="Hydra"/>
  <station source="UNITH003" netid="INTENSITY" code="GR_02338" lat="37.500" lon="23.450" intensity="7.0" name="Poros"/>
  <station source="UNITH003" netid="INTENSITY" code="GR_00312" lat="37.976" lon="23.733" intensity="6.0" name="Athens"/>
  <station source="UNITH003" netid="INTENSITY" code="GR_01265" lat="37.750" lon="23.420" intensity="5.0" name="Aigina"/>
  <station source="UNITH003" netid="INTENSITY" code="GR_00053" lat="37.044" lon="22.116" intensity="4.0" name="Kalamai"/>
  <station source="UNITH003" netid="INTENSITY" code="GR_02024" lat="37.051" lon="22.008" intensity="4.0" name="Messini"/>
  <station source="UNITH003" netid="INTENSITY" code="GR_00264" lat="37.450" lon="24.936" intensity="4.0" name="Syros"/>
</stationlist>
