<?xml version="1.0" encoding="UTF-8"?>
<stationlist reference="DBMI15v4" created="20250821142349">
  <station source="GUICO005" netid="INTENSITY" code="TR_00051" lat="40.183" lon="26.350" intensity="10.0" name="Eceabat"/>
  <station source="GUICO005" netid="INTENSITY" code="TR_00128" lat="40.983" lon="27.517" intensity="10.0" name="Tekirdag"/>
  <station source="GUICO005" netid="INTENSITY" code="TR_00034" lat="40.409" lon="26.672" intensity="9.0" name="Gelibolu"/>
  <station source="GUICO005" netid="INTENSITY" code="TR_00078" lat="41.012" lon="28.976" intensity="7.5" name="Istanbul"/>
  <station source="GUICO005" netid="INTENSITY" code="TR_00030" lat="39.833" lon="26.068" intensity="3.9" name="Bozcaada"/>
</stationlist>
