<?xml version="1.0" encoding="UTF-8"?>
<stationlist reference="DBMI15v4" created="20250808064301">
  <station source="SOUS984" netid="INTENSITY" code="PT_00410" lat="38.147" lon="-8.728" intensity="9.0" name="Melides"/>
  <station source="SOUS984" netid="INTENSITY" code="PT_00675" lat="38.059" lon="-8.785" intensity="9.0" name="Santo André"/>
  <station source="SOUS984" netid="INTENSITY" code="PT_00766" lat="38.524" lon="-8.896" intensity="9.0" name="Setúbal"/>
  <station source="SOUS984" netid="INTENSITY" code="PT_00770" lat="37.956" lon="-8.868" intensity="8.5" name="Sines"/>
  <station source="SOUS984" netid="INTENSITY" code="PT_00016" lat="38.370" lon="-8.513" intensity="8.0" name="Alcácer do Sal"/>
  <station source="SOUS984" netid="INTENSITY" code="PT_00666" lat="38.015" lon="-8.696" intensity="8.0" name="Santiago do Cacém"/>
  <station source="SOUS984" netid="INTENSITY" code="PT_00374" lat="38.713" lon="-9.139" intensity="7.5" name="Lisboa"/>
  <station source="SOUS984" netid="INTENSITY" code="PT_00853" lat="38.954" lon="-8.989" intensity="7.5" name="Vila Franca de Xira"/>
  <station source="SOUS984" netid="INTENSITY" code="PT_00361" lat="37.101" lon="-8.674" intensity="7.0" name="Lagos"/>
  <station source="SOUS984" netid="INTENSITY" code="PT_00027" lat="39.548" lon="-8.980" intensity="6.0" name="Alcobaça"/>
  <station source="SOUS984" netid="INTENSITY" code="PT_00472" lat="39.362" lon="-9.157" intensity="6.0" name="Óbidos"/>
  <station source="SOUS984" netid="INTENSITY" code="PT_00248" lat="40.207" lon="-8.426" intensity="5.0" name="Coimbra"/>
  <station source="SOUS984" netid="INTENSITY" code="PT_00881" lat="40.657" lon="-7.914" intensity="5.0" name="Viseu"/>
  <station source="SOUS984" netid="INTENSITY" code="PT_00166" lat="41.551" lon="-8.422" intensity="4.0" name="Braga"/>
  <station source="SOUS984" netid="INTENSITY" code="PT_00558" lat="41.149" lon="-8.610" intensity="4.0" name="Porto"/>
  <station source="SOUS984" netid="INTENSITY" code="PT_00839" lat="41.693" lon="-8.828" intensity="4.0" name="Viana do Castelo"/>
</stationlist>
