<?xml version="1.0" encoding="UTF-8"?>
<stationlist reference="DBMI15v4" created="20250808064906">
  <station source="TERAL012a" netid="INTENSITY" code="IT_56329" lat="42.295" lon="13.628" intensity="9.0" name="Castelnuovo"/>
  <station source="TERAL012a" netid="INTENSITY" code="IT_56297" lat="42.320" lon="13.541" intensity="8.0" name="Poggio Picenze"/>
  <station source="TERAL012a" netid="INTENSITY" code="IT_55978" lat="42.325" lon="13.592" intensity="7.5" name="Barisciano"/>
  <station source="TERAL012a" netid="INTENSITY" code="IT_56326" lat="42.288" lon="13.558" intensity="7.5" name="San Demetrio ne' Vestini"/>
  <station source="TERAL012a" netid="INTENSITY" code="IT_56168" lat="42.356" lon="13.510" intensity="7.0" name="Pescomaggiore"/>
  <station source="TERAL012a" netid="INTENSITY" code="IT_55979" lat="42.332" lon="13.522" intensity="7.0" name="Petogna"/>
  <station source="TERAL012a" netid="INTENSITY" code="IT_56341" lat="42.288" lon="13.525" intensity="7.0" name="Sant'Eusanio Forconese"/>
  <station source="TERAL012a" netid="INTENSITY" code="IT_56142" lat="42.351" lon="13.399" intensity="6.5" name="L'Aquila"/>
  <station source="TERAL012a" netid="INTENSITY" code="IT_56115" lat="42.419" lon="13.342" intensity="5.5" name="Arischia"/>
  <station source="TERAL012a" netid="INTENSITY" code="IT_56124" lat="42.320" lon="13.466" intensity="5.5" name="Monticchio"/>
  <station source="TERAL012a" netid="INTENSITY" code="IT_53652" lat="41.720" lon="12.671" intensity="3.9" name="Ariccia"/>
  <station source="TERAL012a" netid="INTENSITY" code="IT_51821" lat="43.185" lon="13.479" intensity="3.9" name="Mogliano"/>
  <station source="TERAL012a" netid="INTENSITY" code="IT_54180" lat="41.899" lon="12.477" intensity="3.0" name="Roma"/>
</stationlist>
