<?xml version="1.0" encoding="UTF-8"?>
<stationlist reference="DBMI15v4" created="20250808064905">
  <station source="CAMAL011b" netid="INTENSITY" code="IT_62162" lat="41.864" lon="15.353" intensity="9.5" name="Lesina"/>
  <station source="CAMAL011b" netid="INTENSITY" code="IT_62085" lat="41.784" lon="15.444" intensity="8.5" name="Apricena"/>
  <station source="CAMAL011b" netid="INTENSITY" code="IT_62211" lat="41.706" lon="15.959" intensity="8.5" name="Monte Sant'Angelo"/>
  <station source="CAMAL011b" netid="INTENSITY" code="IT_62243" lat="41.685" lon="15.381" intensity="8.5" name="San Severo"/>
  <station source="CAMAL011b" netid="INTENSITY" code="IT_62250" lat="41.689" lon="15.292" intensity="8.5" name="Torremaggiore"/>
  <station source="CAMAL011b" netid="INTENSITY" code="IT_62194" lat="41.508" lon="15.335" intensity="7.5" name="Lucera"/>
  <station source="CAMAL011b" netid="INTENSITY" code="IT_62242" lat="41.739" lon="15.261" intensity="7.5" name="San Paolo di Civitate"/>
  <station source="CAMAL011b" netid="INTENSITY" code="IT_62241" lat="41.835" lon="15.567" intensity="7.5" name="Sannicandro Garganico"/>
  <station source="CAMAL011b" netid="INTENSITY" code="IT_62257" lat="41.895" lon="15.958" intensity="6.5" name="Vico del Gargano"/>
  <station source="CAMAL011b" netid="INTENSITY" code="IT_62338" lat="41.186" lon="16.673" intensity="5.0" name="Giovinazzo"/>
  <station source="CAMAL011b" netid="INTENSITY" code="IT_58243" lat="42.117" lon="14.708" intensity="5.0" name="Vasto"/>
  <station source="CAMAL011b" netid="INTENSITY" code="IT_60182" lat="40.849" lon="14.250" intensity="4.5" name="Napoli"/>
</stationlist>
