<?xml version="1.0" encoding="UTF-8"?>
<stationlist reference="DBMI15v4" created="20250808064904">
  <station source="CAMAL011b" netid="INTENSITY" code="IT_47291" lat="43.491" lon="11.583" intensity="9.0" name="Caposelvi"/>
  <station source="CAMAL011b" netid="INTENSITY" code="IT_47653" lat="43.442" lon="11.454" intensity="9.0" name="Castagnoli"/>
  <station source="CAMAL011b" netid="INTENSITY" code="IT_46857" lat="43.415" lon="11.603" intensity="8.0" name="Ambra"/>
  <station source="CAMAL011b" netid="INTENSITY" code="IT_46865" lat="43.478" lon="11.617" intensity="8.0" name="Bucine"/>
  <station source="CAMAL011b" netid="INTENSITY" code="IT_46861" lat="43.435" lon="11.649" intensity="7.5" name="Badia Agnano"/>
  <station source="CAMAL011b" netid="INTENSITY" code="IT_47654" lat="43.467" lon="11.434" intensity="7.5" name="Gaiole in Chianti"/>
  <station source="CAMAL011b" netid="INTENSITY" code="IT_72262" lat="43.471" lon="11.571" intensity="7.5" name="Galatrona"/>
  <station source="CAMAL011b" netid="INTENSITY" code="IT_44994" lat="43.589" lon="11.435" intensity="7.5" name="Gaville"/>
  <station source="CAMAL011b" netid="INTENSITY" code="IT_72260" lat="43.451" lon="11.425" intensity="7.5" name="Meleto"/>
  <station source="CAMAL011b" netid="INTENSITY" code="IT_47059" lat="43.499" lon="11.496" intensity="7.5" name="Montegonzi"/>
  <station source="CAMAL011b" netid="INTENSITY" code="IT_47576" lat="43.345" lon="11.503" intensity="7.0" name="Castelnuovo Berardenga"/>
  <station source="CAMAL011b" netid="INTENSITY" code="IT_47676" lat="43.415" lon="11.459" intensity="7.0" name="Madonna di Brolio"/>
  <station source="CAMAL011b" netid="INTENSITY" code="IT_47300" lat="43.523" lon="11.568" intensity="7.0" name="Montevarchi"/>
  <station source="CAMAL011b" netid="INTENSITY" code="IT_47407" lat="43.564" lon="11.531" intensity="7.0" name="San Giovanni Valdarno"/>
  <station source="CAMAL011b" netid="INTENSITY" code="IT_47956" lat="43.318" lon="11.332" intensity="7.0" name="Siena"/>
  <station source="CAMAL011b" netid="INTENSITY" code="IT_44986" lat="43.618" lon="11.473" intensity="6.5" name="Figline Valdarno"/>
  <station source="CAMAL011b" netid="INTENSITY" code="IT_72261" lat="43.485" lon="11.479" intensity="6.5" name="Sereto"/>
  <station source="CAMAL011b" netid="INTENSITY" code="IT_72321" lat="43.487" lon="11.423" intensity="6.4" name="Cetamura del Chianti (rovine)"/>
  <station source="CAMAL011b" netid="INTENSITY" code="IT_47665" lat="43.380" lon="11.429" intensity="6.4" name="Lucignano"/>
  <station source="CAMAL011b" netid="INTENSITY" code="IT_47040" lat="43.527" lon="11.453" intensity="6.0" name="San Pancrazio"/>
  <station source="CAMAL011b" netid="INTENSITY" code="IT_47638" lat="43.422" lon="11.127" intensity="5.0" name="Colle di Val d'Elsa"/>
  <station source="CAMAL011b" netid="INTENSITY" code="IT_45020" lat="43.773" lon="11.257" intensity="5.0" name="Firenze"/>
</stationlist>
