<?xml version="1.0" encoding="UTF-8"?>
<stationlist reference="DBMI15v4" created="20250808065331">
  <station source="UNITH003" netid="INTENSITY" code="GR_00146" lat="37.988" lon="22.466" intensity="8.5" name="Ano Trikala"/>
  <station source="UNITH003" netid="INTENSITY" code="GR_00040" lat="38.072" lon="22.396" intensity="8.5" name="Evrostina [Zacholi]"/>
  <station source="UNITH003" netid="INTENSITY" code="GR_00116" lat="37.867" lon="22.517" intensity="8.0" name="Psari"/>
  <station source="UNITH003" netid="INTENSITY" code="GR_00120" lat="38.087" lon="22.438" intensity="8.0" name="Pyrgos"/>
  <station source="UNITH003" netid="INTENSITY" code="GR_00134" lat="37.780" lon="23.030" intensity="8.0" name="Sofikon"/>
  <station source="UNITH003" netid="INTENSITY" code="GR_00005" lat="38.250" lon="22.083" intensity="7.0" name="Aigio"/>
  <station source="UNITH003" netid="INTENSITY" code="GR_02076" lat="37.567" lon="22.800" intensity="7.0" name="Nafplion"/>
  <station source="UNITH003" netid="INTENSITY" code="GR_00012" lat="38.179" lon="20.487" intensity="5.0" name="Kephalonia (Argostoli)"/>
</stationlist>
