<?xml version="1.0" encoding="UTF-8"?>
<stationlist reference="DBMI15v4" created="20250821141235">
  <station source="SHEB977" netid="INTENSITY" code="RO_00014" lat="45.148" lon="26.823" intensity="8.0" name="Buzău"/>
  <station source="SHEB977" netid="INTENSITY" code="RO_00226" lat="45.436" lon="28.040" intensity="8.0" name="Galaţi"/>
  <station source="SHEB977" netid="INTENSITY" code="UA_00008" lat="45.687" lon="28.612" intensity="7.0" name="Bolhgrad"/>
  <station source="SHEB977" netid="INTENSITY" code="RO_00009" lat="47.750" lon="26.664" intensity="7.0" name="Botoshani"/>
  <station source="SHEB977" netid="INTENSITY" code="RO_00012" lat="44.431" lon="26.121" intensity="7.0" name="Bucuresti"/>
  <station source="SHEB977" netid="INTENSITY" code="RO_00016" lat="46.229" lon="27.667" intensity="7.0" name="Byrlad"/>
  <station source="SHEB977" netid="INTENSITY" code="RO_00023" lat="45.701" lon="27.188" intensity="7.0" name="Focsani"/>
  <station source="SHEB977" netid="INTENSITY" code="RO_00054" lat="47.170" lon="27.583" intensity="7.0" name="Iasi"/>
  <station source="SHEB977" netid="INTENSITY" code="RO_00028" lat="45.010" lon="26.440" intensity="7.0" name="Mizil"/>
  <station source="SHEB977" netid="INTENSITY" code="RO_00036" lat="46.932" lon="26.925" intensity="7.0" name="Roman"/>
  <station source="SHEB977" netid="INTENSITY" code="RO_00037" lat="45.382" lon="27.063" intensity="7.0" name="Rymnicu Sarat"/>
  <station source="SHEB977" netid="INTENSITY" code="MD_00013" lat="46.016" lon="28.414" intensity="7.0" name="Tarakliya-de-Salchiye"/>
  <station source="SHEB977" netid="INTENSITY" code="RO_00045" lat="45.852" lon="27.435" intensity="7.0" name="Tecuci"/>
  <station source="SHEB977" netid="INTENSITY" code="MD_00015" lat="45.634" lon="28.183" intensity="7.0" name="Valeny"/>
  <station source="SHEB977" netid="INTENSITY" code="RO_00053" lat="46.645" lon="27.740" intensity="7.0" name="Vaslui"/>
  <station source="SHEB977" netid="INTENSITY" code="MD_00004" lat="47.028" lon="28.838" intensity="6.0" name="Chisinau"/>
  <station source="SHEB977" netid="INTENSITY" code="RO_00020" lat="45.129" lon="25.740" intensity="6.0" name="Cympina"/>
  <station source="SHEB977" netid="INTENSITY" code="UA_00018" lat="45.345" lon="28.842" intensity="5.5" name="Izmayil"/>
  <station source="SHEB977" netid="INTENSITY" code="MD_00010" lat="46.835" lon="28.593" intensity="5.5" name="Kotovsk"/>
  <station source="SHEB977" netid="INTENSITY" code="MD_00005" lat="46.529" lon="28.783" intensity="5.0" name="Cimislia"/>
  <station source="SHEB977" netid="INTENSITY" code="MD_00006" lat="46.308" lon="28.655" intensity="5.0" name="Comrat"/>
  <station source="SHEB977" netid="INTENSITY" code="BG_00003" lat="44.117" lon="27.267" intensity="5.0" name="Silistra"/>
  <station source="SHEB977" netid="INTENSITY" code="UA_00032" lat="48.450" lon="27.795" intensity="3.5" name="Mohyliv-Podil's'kyy"/>
  <station source="SHEB977" netid="INTENSITY" code="MD_00016" lat="48.170" lon="27.313" intensity="3.5" name="Yedintsy"/>
  <station source="SHEB977" netid="INTENSITY" code="UA_00025" lat="50.450" lon="30.522" intensity="1.8" name="Kiev"/>
  <station source="SHEB977" netid="INTENSITY" code="UA_00030" lat="49.843" lon="24.026" intensity="1.8" name="L'viv"/>
</stationlist>
